timestamp,x,y,z,v_xopt,v_yopt,v_xopt_sum,v_yopt_sum,v_x,v_y,DD[0],DD[1],DD[2],DD[3],dd1,dd2,dd3,dd4,Pitch,Roll,Yaw,Yaw_pix,heading_pix,Height,acc[0],acc[1],acc[2],omega[0],omega[1],omega[2],Mode,Mode_pos,rcCMD[0],rcCMD[1],rcCMD[2],rcCMD[3]
1577693033.257,0.005,-0.001,0.002,0.000,0.000,0.000,0.000,0.000,0.001,374.000,408.000,433.000,398.000,3.740,4.080,4.330,3.980,0.014,-0.021,-0.000,0.000,170.000,0.074,-0.218,-0.157,-10.107,-0.000,-0.003,-0.002,0,0,1500,1500,1000,1500
1577693033.276,0.003,0.000,0.001,0.000,0.000,0.000,0.000,-0.002,0.001,376.000,408.000,439.000,395.000,3.760,4.080,4.390,3.950,0.014,-0.022,-0.000,0.000,170.000,0.076,-0.219,-0.147,-10.105,0.001,-0.001,-0.002,0,0,1500,1500,1000,1500
1577693033.300,0.002,0.001,0.001,0.000,0.000,0.000,0.000,-0.002,0.001,376.000,408.000,439.000,395.000,3.760,4.080,4.390,3.950,0.014,-0.022,-0.000,0.000,170.000,0.076,-0.217,-0.150,-10.101,-0.000,0.003,-0.001,0,0,1500,1500,1000,1500
1577693033.323,0.001,0.002,0.000,0.000,0.000,0.000,0.000,-0.002,0.001,376.000,408.000,439.000,395.000,3.760,4.080,4.390,3.950,0.014,-0.022,-0.000,0.000,170.000,0.076,-0.220,-0.151,-10.110,0.003,0.004,-0.003,0,0,1500,1500,1000,1500
1577693033.343,-0.001,0.003,-0.001,0.000,0.000,0.000,0.000,-0.002,0.001,376.000,408.000,439.000,395.000,3.760,4.080,4.390,3.950,0.014,-0.023,-0.000,0.000,170.000,0.072,-0.226,-0.158,-10.097,-0.000,0.001,0.000,0,0,1500,1500,1000,1500
1577693033.364,-0.001,0.002,-0.004,0.000,0.000,0.000,0.000,-0.001,-0.000,378.000,410.000,437.000,395.000,3.780,4.100,4.370,3.950,0.015,-0.023,-0.000,0.000,170.000,0.072,-0.224,-0.156,-10.111,-0.000,0.005,0.000,0,0,1500,1500,1000,1500
1577693033.387,-0.000,0.001,-0.007,0.000,0.000,0.000,0.000,0.001,-0.001,381.000,408.000,435.000,397.000,3.810,4.080,4.350,3.970,0.015,-0.023,-0.000,0.000,170.000,0.072,-0.227,-0.151,-10.092,0.002,-0.001,0.001,0,0,1500,1500,1000,1500
1577693033.409,0.000,0.001,-0.009,0.000,0.000,0.000,0.000,0.001,-0.001,381.000,408.000,435.000,397.000,3.810,4.080,4.350,3.970,0.015,-0.023,-0.000,0.000,170.000,0.072,-0.239,-0.145,-10.101,-0.000,0.002,0.001,0,0,1500,1500,1000,1500
1577693033.431,0.001,0.000,-0.010,0.000,0.000,0.000,0.000,0.001,-0.001,381.000,408.000,435.000,397.000,3.810,4.080,4.350,3.970,0.015,-0.023,-0.000,0.000,170.000,0.074,-0.255,-0.146,-10.118,0.001,-0.002,0.000,0,0,1500,1500,1000,1500
1577693033.453,0.002,-0.000,-0.011,0.000,0.000,0.000,0.000,0.001,-0.001,381.000,408.000,435.000,397.000,3.810,4.080,4.350,3.970,0.015,-0.023,-0.000,0.000,170.000,0.074,-0.247,-0.133,-10.093,-0.000,-0.003,-0.003,0,0,1500,1500,1000,1500
1577693033.475,0.001,0.000,-0.008,-0.003,0.000,0.000,0.000,-0.003,0.000,377.000,406.000,438.000,394.000,3.770,4.060,4.380,3.940,0.015,-0.024,-0.000,0.000,170.000,0.072,-0.253,-0.145,-10.067,-0.000,0.002,-0.003,0,0,1500,1500,1000,1500
1577693033.500,0.001,0.001,-0.006,-0.003,0.000,0.000,0.000,-0.004,0.001,377.000,406.000,438.000,394.000,3.770,4.060,4.380,3.940,0.014,-0.024,-0.000,0.000,170.000,0.072,-0.239,-0.149,-10.063,0.001,0.003,-0.001,0,0,1500,1500,1000,1500
1577693033.520,0.001,0.001,-0.005,0.003,-0.000,-0.000,0.000,0.002,0.000,377.000,408.000,433.000,398.000,3.770,4.080,4.330,3.980,0.014,-0.024,-0.000,0.000,170.000,0.071,-0.245,-0.144,-10.063,0.004,0.002,0.000,0,0,1500,1500,1000,1500
1577693033.543,0.002,0.001,-0.004,0.003,-0.000,-0.000,0.000,0.003,0.000,377.000,408.000,433.000,398.000,3.770,4.080,4.330,3.980,0.015,-0.024,-0.000,0.000,170.000,0.071,-0.239,-0.151,-10.042,-0.002,0.003,0.000,0,0,1500,1500,1000,1500
1577693033.565,0.003,0.001,-0.003,0.003,-0.000,-0.000,0.000,0.004,0.000,377.000,408.000,433.000,398.000,3.770,4.080,4.330,3.980,0.015,-0.024,-0.000,0.000,170.000,0.071,-0.246,-0.149,-10.049,-0.001,-0.002,0.001,0,0,1500,1500,1000,1500
1577693033.586,0.001,0.001,0.000,0.000,0.000,0.000,-0.000,-0.001,0.000,374.000,408.000,437.000,393.000,3.740,4.080,4.370,3.930,0.014,-0.024,-0.000,0.000,170.000,0.071,-0.230,-0.141,-10.058,-0.002,0.001,-0.002,0,0,1500,1500,1000,1500
1577693033.607,-0.001,0.002,0.004,0.000,0.000,0.000,-0.000,-0.002,0.000,374.000,408.000,437.000,393.000,3.740,4.080,4.370,3.930,0.014,-0.024,-0.000,0.000,170.000,0.073,-0.234,-0.125,-10.073,-0.001,0.003,0.002,0,0,1500,1500,1000,1500
1577693033.630,-0.002,0.002,0.007,0.000,0.000,0.000,-0.000,-0.002,0.000,374.000,408.000,437.000,393.000,3.740,4.080,4.370,3.930,0.014,-0.024,-0.000,0.000,170.000,0.075,-0.231,-0.135,-10.091,0.001,-0.001,-0.002,0,0,1500,1500,1000,1500
1577693033.653,-0.004,0.002,0.009,0.000,0.000,0.000,-0.000,-0.002,0.000,374.000,408.000,437.000,393.000,3.740,4.080,4.370,3.930,0.014,-0.024,-0.000,0.000,170.000,0.075,-0.227,-0.145,-10.086,0.001,0.002,-0.002,0,0,1500,1500,1000,1500
1577693033.673,-0.003,0.002,0.012,0.000,0.000,0.000,-0.000,0.000,0.000,376.000,404.000,433.000,395.000,3.760,4.040,4.330,3.950,0.014,-0.024,-0.000,0.000,170.000,0.074,-0.220,-0.146,-10.086,0.001,0.001,0.001,0,0,1500,1500,1000,1500
1577693033.696,-0.002,0.003,0.015,0.000,0.000,0.000,-0.000,0.001,0.000,376.000,404.000,433.000,395.000,3.760,4.040,4.330,3.950,0.014,-0.023,-0.000,0.000,170.000,0.074,-0.220,-0.146,-10.083,0.001,-0.002,0.001,0,0,1500,1500,1000,1500
1577693033.717,-0.001,0.003,0.017,0.000,0.000,0.000,-0.000,0.001,0.000,376.000,404.000,433.000,395.000,3.760,4.040,4.330,3.950,0.014,-0.022,-0.000,0.000,170.000,0.075,-0.213,-0.133,-10.102,0.001,-0.001,0.000,0,0,1500,1500,1000,1500
1577693033.742,-0.000,0.003,0.019,0.000,0.000,0.000,-0.000,0.001,0.000,376.000,404.000,433.000,395.000,3.760,4.040,4.330,3.950,0.014,-0.021,-0.000,0.000,170.000,0.075,-0.206,-0.142,-10.111,-0.002,0.002,-0.002,0,0,1500,1500,1000,1500
1577693033.762,0.002,0.003,0.016,0.000,0.000,0.000,-0.000,0.002,-0.000,381.000,403.000,435.000,395.000,3.810,4.030,4.350,3.950,0.014,-0.021,-0.000,0.000,170.000,0.073,-0.209,-0.146,-10.099,-0.002,0.001,0.001,0,0,1500,1500,1000,1500
1577693033.789,0.003,0.003,0.013,0.000,0.000,0.000,-0.000,0.002,-0.000,381.000,403.000,435.000,395.000,3.810,4.030,4.350,3.950,0.014,-0.020,-0.000,0.000,170.000,0.073,-0.201,-0.148,-10.100,0.003,0.002,0.001,0,0,1500,1500,1000,1500
1577693033.808,0.004,0.002,0.010,0.000,0.000,0.000,-0.000,0.002,-0.000,381.000,403.000,435.000,395.000,3.810,4.030,4.350,3.950,0.014,-0.020,-0.000,0.000,170.000,0.073,-0.213,-0.139,-10.094,0.003,0.003,-0.002,0,0,1500,1500,1000,1500
1577693033.829,0.005,0.003,0.008,0.000,0.000,0.000,-0.000,0.001,0.000,375.000,408.000,433.000,398.000,3.750,4.080,4.330,3.980,0.014,-0.020,-0.000,0.000,170.000,0.071,-0.201,-0.139,-10.111,0.001,-0.003,-0.001,0,0,1500,1500,1000,1500
1577693033.851,0.005,0.003,0.006,0.000,0.000,0.000,-0.000,0.000,0.000,375.000,408.000,433.000,398.000,3.750,4.080,4.330,3.980,0.014,-0.020,-0.000,0.000,170.000,0.072,-0.200,-0.144,-10.086,-0.001,-0.004,0.000,0,0,1500,1500,1000,1500
1577693033.873,0.005,0.003,0.009,0.000,0.000,0.000,-0.000,0.000,0.000,374.000,406.000,431.000,396.000,3.740,4.060,4.310,3.960,0.014,-0.020,-0.000,0.000,170.000,0.073,-0.216,-0.147,-10.078,0.002,0.002,0.002,0,0,1500,1500,1000,1500
1577693033.896,0.005,0.003,0.012,0.000,0.000,0.000,-0.000,0.000,0.000,374.000,406.000,431.000,396.000,3.740,4.060,4.310,3.960,0.014,-0.020,-0.000,0.000,170.000,0.073,-0.219,-0.143,-10.093,0.001,-0.001,0.000,0,0,1500,1500,1000,1500
1577693033.917,0.006,0.004,0.010,0.000,0.000,0.000,-0.000,0.001,0.001,377.000,404.000,435.000,397.000,3.770,4.040,4.350,3.970,0.014,-0.021,-0.000,0.000,170.000,0.073,-0.226,-0.137,-10.091,-0.000,-0.003,-0.002,0,0,1500,1500,1000,1500
1577693033.939,0.006,0.005,0.009,0.000,0.000,0.000,-0.000,0.001,0.001,377.000,404.000,435.000,397.000,3.770,4.040,4.350,3.970,0.013,-0.021,-0.000,0.000,170.000,0.073,-0.209,-0.132,-10.105,-0.001,0.002,0.001,0,0,1500,1500,1000,1500
1577693033.960,0.007,0.005,0.005,0.000,0.000,0.000,-0.000,0.001,0.000,378.000,408.000,433.000,399.000,3.780,4.080,4.330,3.990,0.013,-0.020,-0.000,0.000,170.000,0.073,-0.208,-0.123,-10.093,0.002,0.001,0.001,0,0,1500,1500,1000,1500
1577693033.983,0.008,0.005,0.001,0.000,0.000,0.000,-0.000,0.001,-0.000,378.000,408.000,433.000,399.000,3.780,4.080,4.330,3.990,0.013,-0.020,-0.000,0.000,170.000,0.073,-0.203,-0.129,-10.099,0.001,-0.001,0.002,0,0,1500,1500,1000,1500
1577693034.006,0.008,0.004,-0.001,0.000,0.000,0.000,-0.000,0.001,-0.000,378.000,408.000,433.000,399.000,3.780,4.080,4.330,3.990,0.013,-0.020,-0.000,0.000,170.000,0.076,-0.211,-0.126,-10.097,0.002,-0.002,0.001,0,0,1500,1500,1000,1500
1577693034.028,0.009,0.004,-0.002,0.000,0.000,0.000,-0.000,0.001,-0.000,378.000,408.000,433.000,399.000,3.780,4.080,4.330,3.990,0.013,-0.020,-0.000,0.000,170.000,0.076,-0.224,-0.146,-10.115,-0.001,0.002,-0.004,0,0,1500,1500,1000,1500
1577693034.054,0.010,0.004,-0.003,0.000,0.000,0.000,-0.000,0.001,-0.000,378.000,408.000,433.000,399.000,3.780,4.080,4.330,3.990,0.014,-0.021,-0.000,0.000,170.000,0.076,-0.224,-0.146,-10.109,-0.001,0.002,0.000,0,0,1500,1500,1000,1500
1577693034.072,0.011,0.004,-0.001,0.000,0.000,0.000,-0.000,0.001,-0.001,378.000,406.000,431.000,397.000,3.780,4.060,4.310,3.970,0.014,-0.021,-0.000,0.000,170.000,0.073,-0.217,-0.150,-10.090,-0.001,-0.003,-0.001,0,0,1500,1500,1000,1500
1577693034.093,0.010,0.004,-0.003,0.000,0.000,0.000,-0.000,0.000,0.000,377.000,408.000,435.000,399.000,3.770,4.080,4.350,3.990,0.014,-0.021,-0.000,0.000,170.000,0.075,-0.211,-0.152,-10.078,-0.002,-0.001,-0.003,0,0,1500,1500,1000,1500
1577693034.116,0.010,0.005,-0.004,0.000,0.000,0.000,-0.000,-0.000,0.000,377.000,408.000,435.000,399.000,3.770,4.080,4.350,3.990,0.014,-0.021,-0.000,0.000,170.000,0.074,-0.219,-0.145,-10.087,-0.002,-0.003,0.001,0,0,1500,1500,1000,1500
1577693034.140,0.010,0.005,-0.006,0.000,0.000,0.000,-0.000,-0.000,0.001,377.000,408.000,435.000,399.000,3.770,4.080,4.350,3.990,0.015,-0.021,-0.000,0.000,170.000,0.074,-0.213,-0.162,-10.102,0.003,-0.001,0.003,0,0,1500,1500,1000,1500
1577693034.159,0.009,0.005,-0.003,0.000,0.000,0.000,-0.000,-0.001,0.000,375.000,408.000,435.000,396.000,3.750,4.080,4.350,3.960,0.015,-0.021,-0.000,0.000,170.000,0.075,-0.207,-0.166,-10.119,-0.001,0.002,0.003,0,0,1500,1500,1000,1500
1577693034.181,0.008,0.005,-0.001,0.000,0.000,0.000,-0.000,-0.001,0.000,375.000,408.000,435.000,396.000,3.750,4.080,4.350,3.960,0.015,-0.021,-0.000,0.000,170.000,0.075,-0.212,-0.166,-10.130,-0.000,0.004,0.000,0,0,1500,1500,1000,1500
1577693034.203,0.007,0.004,-0.001,0.000,0.000,0.000,-0.000,-0.001,-0.001,378.000,410.000,435.000,394.000,3.780,4.100,4.350,3.940,0.016,-0.021,-0.000,0.000,170.000,0.074,-0.209,-0.167,-10.149,0.002,0.003,0.000,0,0,1500,1500,1000,1500
1577693034.226,0.006,0.003,-0.001,0.000,0.000,0.000,-0.000,-0.001,-0.001,378.000,410.000,435.000,394.000,3.780,4.100,4.350,3.940,0.016,-0.022,-0.000,0.000,170.000,0.074,-0.222,-0.175,-10.150,0.003,0.002,-0.002,0,0,1500,1500,1000,1500
1577693034.247,0.005,0.002,-0.007,0.000,0.000,0.000,-0.000,-0.001,-0.001,381.000,410.000,439.000,395.000,3.810,4.100,4.390,3.950,0.017,-0.022,-0.000,0.000,170.000,0.073,-0.211,-0.168,-10.147,0.001,0.001,0.000,0,0,1500,1500,1000,1500
1577693034.271,0.004,0.002,-0.011,0.000,0.000,0.000,-0.000,-0.001,-0.001,381.000,410.000,439.000,395.000,3.810,4.100,4.390,3.950,0.017,-0.022,-0.000,0.000,170.000,0.073,-0.209,-0.173,-10.161,-0.000,0.003,-0.003,0,0,1500,1500,1000,1500
1577693034.291,0.003,0.001,-0.015,-0.000,-0.003,0.000,-0.000,-0.001,-0.003,381.000,410.000,439.000,395.000,3.810,4.100,4.390,3.950,0.017,-0.022,-0.000,0.000,170.000,0.072,-0.207,-0.169,-10.155,-0.001,0.001,0.002,0,0,1500,1500,1000,1500
1577693034.315,0.002,0.000,-0.018,-0.000,-0.003,0.000,-0.000,-0.001,-0.003,381.000,410.000,439.000,395.000,3.810,4.100,4.390,3.950,0.017,-0.022,-0.000,0.000,170.000,0.072,-0.212,-0.159,-10.171,-0.000,0.001,-0.001,0,0,1500,1500,1000,1500
1577693034.335,0.002,-0.000,-0.015,0.000,0.003,-0.000,-0.000,-0.000,0.001,378.000,410.000,433.000,397.000,3.780,4.100,4.330,3.970,0.017,-0.022,-0.000,0.000,170.000,0.074,-0.210,-0.157,-10.162,-0.001,0.001,-0.002,0,0,1500,1500,1000,1500
1577693034.368,0.003,0.000,-0.010,0.000,0.000,-0.000,-0.000,0.001,0.000,375.000,408.000,431.000,399.000,3.750,4.080,4.310,3.990,0.016,-0.021,-0.000,0.000,170.000,0.073,-0.211,-0.148,-10.152,-0.002,0.004,0.000,0,0,1500,1500,1000,1500
1577693034.383,0.004,0.000,-0.005,0.000,0.000,-0.000,-0.000,0.001,0.000,375.000,408.000,431.000,399.000,3.750,4.080,4.310,3.990,0.016,-0.021,-0.000,0.000,170.000,0.073,-0.226,-0.166,-10.146,-0.001,0.001,-0.001,0,0,1500,1500,1000,1500
1577693034.402,0.005,0.001,-0.002,0.000,0.000,-0.000,-0.000,0.001,0.000,375.000,408.000,431.000,399.000,3.750,4.080,4.310,3.990,0.016,-0.021,-0.000,0.000,170.000,0.072,-0.232,-0.166,-10.112,-0.001,0.003,-0.001,0,0,1500,1500,1000,1500
1577693034.424,0.005,0.001,0.001,0.000,0.000,-0.000,-0.000,0.001,0.000,375.000,408.000,431.000,399.000,3.750,4.080,4.310,3.990,0.016,-0.022,-0.000,0.000,170.000,0.072,-0.237,-0.165,-10.111,0.003,-0.002,0.000,0,0,1500,1500,1000,1500
1577693034.446,0.006,0.001,0.003,0.000,0.000,-0.000,-0.000,0.001,0.000,375.000,408.000,431.000,399.000,3.750,4.080,4.310,3.990,0.016,-0.021,-0.000,0.000,170.000,0.072,-0.212,-0.162,-10.120,-0.002,0.002,0.000,0,0,1500,1500,1000,1500
1577693034.469,0.006,0.001,0.005,0.000,0.000,-0.000,-0.000,0.001,0.000,375.000,408.000,431.000,399.000,3.750,4.080,4.310,3.990,0.016,-0.021,-0.000,0.000,170.000,0.072,-0.212,-0.154,-10.153,0.001,0.002,0.000,0,0,1500,1500,1000,1500
1577693034.496,0.007,0.002,0.006,0.000,0.000,-0.000,-0.000,0.001,0.000,375.000,408.000,431.000,399.000,3.750,4.080,4.310,3.990,0.016,-0.021,-0.000,0.000,170.000,0.073,-0.223,-0.157,-10.146,-0.000,-0.002,0.001,0,0,1500,1500,1000,1500
1577693034.515,0.007,0.002,0.007,0.000,0.000,-0.000,-0.000,0.001,0.000,375.000,408.000,431.000,399.000,3.750,4.080,4.310,3.990,0.016,-0.021,-0.000,0.000,170.000,0.073,-0.231,-0.169,-10.168,0.002,0.001,-0.002,0,0,1500,1500,1000,1500
1577693034.538,0.008,0.002,0.007,0.000,0.000,-0.000,-0.000,0.001,0.000,375.000,408.000,431.000,399.000,3.750,4.080,4.310,3.990,0.016,-0.021,-0.000,0.000,170.000,0.072,-0.229,-0.172,-10.178,0.001,0.001,-0.004,0,0,1500,1500,1000,1500
1577693034.558,0.008,0.002,0.008,0.000,0.000,-0.000,-0.000,0.001,0.000,375.000,408.000,431.000,399.000,3.750,4.080,4.310,3.990,0.016,-0.022,-0.000,0.000,170.000,0.074,-0.226,-0.178,-10.163,0.001,-0.001,-0.001,0,0,1500,1500,1000,1500
1577693034.579,0.009,0.002,0.008,0.000,0.000,-0.000,-0.000,0.001,0.000,375.000,408.000,431.000,399.000,3.750,4.080,4.310,3.990,0.017,-0.022,-0.000,0.000,170.000,0.074,-0.225,-0.187,-10.143,-0.001,0.002,0.002,0,0,1500,1500,1000,1500
1577693034.608,0.009,0.003,0.008,0.000,0.000,-0.000,-0.000,0.001,0.000,375.000,408.000,431.000,399.000,3.750,4.080,4.310,3.990,0.017,-0.022,-0.000,0.000,170.000,0.075,-0.227,-0.177,-10.107,0.001,-0.001,0.000,0,0,1500,1500,1000,1500
1577693034.626,0.009,0.003,0.009,0.000,0.000,-0.000,-0.000,0.000,0.000,375.000,408.000,431.000,399.000,3.750,4.080,4.310,3.990,0.017,-0.022,-0.000,0.000,170.000,0.075,-0.224,-0.169,-10.123,0.002,-0.002,-0.004,0,0,1500,1500,1000,1500
1577693034.647,0.009,0.002,0.007,0.000,0.000,-0.000,-0.000,-0.000,-0.001,378.000,408.000,433.000,395.000,3.780,4.080,4.330,3.950,0.017,-0.022,-0.000,0.000,170.000,0.073,-0.214,-0.166,-10.134,0.001,0.003,0.000,0,0,1500,1500,1000,1500
1577693034.672,0.009,0.001,0.007,0.000,0.000,-0.000,-0.000,-0.000,-0.001,378.000,408.000,433.000,395.000,3.780,4.080,4.330,3.950,0.017,-0.022,-0.000,0.000,170.000,0.073,-0.218,-0.166,-10.137,-0.003,-0.001,-0.002,0,0,1500,1500,1000,1500
1577693034.691,0.009,0.000,0.006,0.000,0.000,-0.000,-0.000,-0.000,-0.001,378.000,408.000,433.000,395.000,3.780,4.080,4.330,3.950,0.017,-0.022,-0.000,0.000,170.000,0.074,-0.220,-0.160,-10.146,0.002,0.002,0.000,0,0,1500,1500,1000,1500
1577693034.717,0.009,-0.001,0.005,0.000,0.000,-0.000,-0.000,-0.000,-0.001,378.000,408.000,433.000,395.000,3.780,4.080,4.330,3.950,0.017,-0.021,-0.000,0.000,170.000,0.074,-0.212,-0.156,-10.123,-0.000,0.001,-0.002,0,0,1500,1500,1000,1500
1577693034.742,0.009,-0.002,0.004,0.000,0.000,-0.000,-0.000,-0.000,-0.001,378.000,410.000,431.000,396.000,3.780,4.100,4.310,3.960,0.016,-0.021,-0.000,0.000,170.000,0.075,-0.211,-0.147,-10.120,0.002,0.001,0.002,0,0,1500,1500,1000,1500
1577693034.759,0.009,-0.003,0.004,0.000,0.000,-0.000,-0.000,0.000,-0.001,378.000,410.000,431.000,396.000,3.780,4.100,4.310,3.960,0.016,-0.022,-0.000,0.000,170.000,0.075,-0.232,-0.140,-10.115,-0.000,0.003,0.001,0,0,1500,1500,1000,1500
1577693034.782,0.008,-0.003,0.004,0.000,0.000,-0.000,-0.000,-0.001,-0.000,375.000,408.000,433.000,396.000,3.750,4.080,4.330,3.960,0.015,-0.022,-0.000,0.000,170.000,0.071,-0.229,-0.136,-10.112,0.003,-0.003,0.002,0,0,1500,1500,1000,1500
1577693034.802,0.008,-0.003,0.006,0.000,0.000,-0.000,-0.000,-0.001,0.000,375.000,408.000,433.000,396.000,3.750,4.080,4.330,3.960,0.015,-0.023,-0.000,0.000,170.000,0.075,-0.235,-0.130,-10.101,0.005,0.003,0.000,0,0,1500,1500,1000,1500
1577693034.823,0.007,-0.003,0.007,0.000,0.000,-0.000,-0.000,-0.001,0.000,375.000,408.000,433.000,396.000,3.750,4.080,4.330,3.960,0.014,-0.023,-0.000,0.000,170.000,0.075,-0.236,-0.133,-10.117,0.002,0.001,-0.001,0,0,1500,1500,1000,1500
1577693034.845,0.007,-0.002,0.007,0.000,0.000,-0.000,-0.000,-0.001,0.000,375.000,408.000,433.000,396.000,3.750,4.080,4.330,3.960,0.014,-0.023,-0.000,0.000,170.000,0.071,-0.237,-0.115,-10.103,-0.002,0.001,-0.002,0,0,1500,1500,1000,1500
1577693034.867,0.006,-0.002,0.007,0.000,0.000,-0.000,-0.000,-0.001,0.000,375.000,408.000,433.000,396.000,3.750,4.080,4.330,3.960,0.013,-0.024,-0.000,-0.000,170.000,0.071,-0.250,-0.109,-10.093,-0.000,-0.001,0.003,0,0,1500,1500,1000,1500
1577693034.889,0.006,-0.003,0.008,0.000,0.000,-0.000,-0.000,-0.001,-0.001,377.000,408.000,433.000,393.000,3.770,4.080,4.330,3.930,0.013,-0.024,-0.000,-0.000,170.000,0.072,-0.251,-0.120,-10.114,-0.001,0.004,0.000,0,0,1500,1500,1000,1500
1577693034.911,0.005,-0.004,0.008,0.000,0.000,-0.000,-0.000,-0.001,-0.001,377.000,408.000,433.000,393.000,3.770,4.080,4.330,3.930,0.012,-0.024,-0.000,-0.000,170.000,0.072,-0.243,-0.108,-10.117,-0.000,-0.001,0.002,0,0,1500,1500,1000,1500
1577693034.933,0.007,-0.003,0.005,0.000,0.000,-0.000,-0.000,0.001,0.001,379.000,404.000,435.000,400.000,3.790,4.040,4.350,4.000,0.012,-0.024,-0.000,-0.000,170.000,0.076,-0.236,-0.118,-10.133,0.003,0.002,-0.003,0,0,1500,1500,1000,1500
1577693034.956,0.008,-0.001,0.003,0.000,0.000,-0.000,-0.000,0.002,0.001,379.000,404.000,435.000,400.000,3.790,4.040,4.350,4.000,0.012,-0.023,-0.000,-0.000,170.000,0.076,-0.232,-0.125,-10.111,-0.000,-0.002,-0.001,0,0,1500,1500,1000,1500
1577693034.981,0.010,0.000,-0.000,0.000,0.000,-0.000,-0.000,0.002,0.001,379.000,404.000,435.000,400.000,3.790,4.040,4.350,4.000,0.012,-0.022,-0.000,-0.000,170.000,0.073,-0.222,-0.128,-10.106,0.002,0.003,-0.003,0,0,1500,1500,1000,1500
1577693035.003,0.011,0.001,-0.002,0.000,0.000,-0.000,-0.000,0.002,0.001,379.000,404.000,435.000,400.000,3.790,4.040,4.350,4.000,0.012,-0.022,-0.000,-0.000,170.000,0.073,-0.227,-0.130,-10.109,-0.000,-0.001,0.001,0,0,1500,1500,1000,1500
1577693035.022,0.010,0.002,-0.005,0.000,0.000,-0.000,-0.000,-0.000,0.001,378.000,408.000,437.000,397.000,3.780,4.080,4.370,3.970,0.012,-0.022,-0.000,-0.000,170.000,0.072,-0.228,-0.133,-10.120,0.002,-0.002,0.001,0,0,1500,1500,1000,1500
1577693035.048,0.010,0.002,-0.007,0.000,0.000,-0.000,-0.000,-0.001,0.000,378.000,408.000,437.000,397.000,3.780,4.080,4.370,3.970,0.012,-0.022,-0.000,-0.000,170.000,0.072,-0.219,-0.137,-10.114,-0.000,-0.001,0.001,0,0,1500,1500,1000,1500
1577693035.069,0.009,0.002,-0.008,0.000,0.000,-0.000,-0.000,-0.000,0.000,379.000,406.000,437.000,396.000,3.790,4.060,4.370,3.960,0.012,-0.022,-0.000,-0.000,170.000,0.074,-0.224,-0.136,-10.100,0.002,0.001,0.000,0,0,1500,1500,1000,1500
1577693035.090,0.009,0.003,-0.008,0.000,0.000,-0.000,-0.000,-0.000,0.000,379.000,406.000,437.000,396.000,3.790,4.060,4.370,3.960,0.013,-0.023,-0.000,-0.000,170.000,0.071,-0.235,-0.133,-10.088,0.002,-0.001,0.000,0,0,1500,1500,1000,1500
1577693035.118,0.009,0.003,-0.008,0.000,0.000,-0.000,-0.000,-0.000,0.000,379.000,406.000,437.000,396.000,3.790,4.060,4.370,3.960,0.013,-0.023,-0.000,-0.000,170.000,0.071,-0.240,-0.142,-10.089,-0.001,-0.003,0.000,0,0,1500,1500,1000,1500
1577693035.141,0.009,0.003,-0.008,0.000,0.000,-0.000,-0.000,-0.000,0.000,379.000,406.000,437.000,396.000,3.790,4.060,4.370,3.960,0.013,-0.023,-0.000,-0.000,170.000,0.071,-0.245,-0.136,-10.100,-0.000,0.002,-0.002,0,0,1500,1500,1000,1500
1577693035.158,0.008,0.003,-0.006,0.000,0.000,-0.000,-0.000,-0.001,-0.000,378.000,408.000,435.000,395.000,3.780,4.080,4.350,3.950,0.013,-0.024,-0.000,-0.000,170.000,0.074,-0.243,-0.134,-10.119,0.004,0.001,-0.001,0,0,1500,1500,1000,1500
1577693035.178,0.007,0.003,-0.008,0.000,0.000,-0.000,-0.000,-0.002,0.000,379.000,408.000,440.000,395.000,3.790,4.080,4.400,3.950,0.014,-0.024,-0.000,-0.000,170.000,0.075,-0.231,-0.148,-10.085,0.002,0.001,-0.002,0,0,1500,1500,1000,1500
1577693035.202,0.006,0.003,-0.009,0.000,0.000,-0.000,-0.000,-0.002,0.000,379.000,408.000,440.000,395.000,3.790,4.080,4.400,3.950,0.014,-0.024,-0.000,-0.000,170.000,0.075,-0.219,-0.143,-10.089,-0.001,0.002,-0.001,0,0,1500,1500,1000,1500
1577693035.228,0.005,0.003,-0.011,0.000,0.000,-0.000,-0.000,-0.002,0.000,379.000,408.000,440.000,395.000,3.790,4.080,4.400,3.950,0.014,-0.024,-0.000,-0.000,170.000,0.072,-0.226,-0.148,-10.100,-0.000,0.004,-0.001,0,0,1500,1500,1000,1500
1577693035.247,0.003,0.004,-0.012,0.000,0.000,-0.000,-0.000,-0.002,0.000,379.000,408.000,440.000,395.000,3.790,4.080,4.400,3.950,0.014,-0.024,-0.000,-0.000,170.000,0.072,-0.222,-0.152,-10.101,0.001,0.001,-0.001,0,0,1500,1500,1000,1500
1577693035.268,0.004,0.003,-0.011,0.000,0.000,-0.000,-0.000,0.000,-0.001,379.000,410.000,433.000,398.000,3.790,4.100,4.330,3.980,0.015,-0.023,-0.000,-0.000,170.000,0.076,-0.221,-0.167,-10.102,0.002,-0.001,0.000,0,0,1500,1500,1000,1500
1577693035.290,0.003,0.003,-0.011,0.000,0.000,-0.000,-0.000,-0.000,-0.000,379.000,408.000,438.000,396.000,3.790,4.080,4.380,3.960,0.015,-0.023,-0.000,-0.000,170.000,0.075,-0.216,-0.163,-10.124,-0.000,0.003,-0.001,0,0,1500,1500,1000,1500
1577693035.312,0.003,0.003,-0.011,0.000,0.000,-0.000,-0.000,-0.001,-0.000,379.000,408.000,438.000,396.000,3.790,4.080,4.380,3.960,0.015,-0.022,-0.000,-0.000,170.000,0.075,-0.201,-0.155,-10.110,0.002,0.001,-0.002,0,0,1500,1500,1000,1500
1577693035.336,0.003,0.003,-0.014,0.000,0.000,-0.000,-0.000,-0.000,0.000,379.000,410.000,438.000,399.000,3.790,4.100,4.380,3.990,0.015,-0.021,-0.000,-0.000,170.000,0.072,-0.193,-0.152,-10.119,0.001,0.002,0.001,0,0,1500,1500,1000,1500
1577693035.356,0.002,0.004,-0.017,0.000,0.000,-0.000,-0.000,-0.000,0.000,379.000,410.000,438.000,399.000,3.790,4.100,4.380,3.990,0.015,-0.021,-0.000,-0.000,170.000,0.072,-0.193,-0.153,-10.123,-0.002,-0.001,-0.002,0,0,1500,1500,1000,1500
1577693035.383,0.002,0.004,-0.019,0.000,0.000,-0.000,-0.000,-0.000,0.000,379.000,410.000,438.000,399.000,3.790,4.100,4.380,3.990,0.015,-0.021,-0.000,-0.000,170.000,0.073,-0.196,-0.147,-10.099,0.001,-0.002,0.001,0,0,1500,1500,1000,1500
1577693035.405,0.002,0.004,-0.021,0.000,0.000,-0.000,-0.000,-0.000,0.000,379.000,410.000,438.000,399.000,3.790,4.100,4.380,3.990,0.015,-0.021,-0.000,-0.000,170.000,0.073,-0.207,-0.163,-10.113,0.002,0.001,0.001,0,0,1500,1500,1000,1500
1577693035.424,0.004,0.003,-0.012,0.000,0.000,-0.000,-0.000,0.002,-0.001,381.000,404.000,431.000,394.000,3.810,4.040,4.310,3.940,0.015,-0.020,-0.000,-0.000,170.000,0.074,-0.212,-0.158,-10.118,-0.000,0.003,0.001,0,0,1500,1500,1000,1500
1577693035.449,0.005,0.002,-0.005,0.000,0.000,-0.000,-0.000,0.002,-0.002,381.000,404.000,431.000,394.000,3.810,4.040,4.310,3.940,0.016,-0.020,-0.000,-0.000,170.000,0.074,-0.211,-0.164,-10.126,-0.001,-0.002,-0.001,0,0,1500,1500,1000,1500
1577693035.473,0.006,0.001,-0.004,0.000,0.000,-0.000,-0.000,0.001,-0.001,379.000,408.000,433.000,398.000,3.790,4.080,4.330,3.980,0.016,-0.020,-0.000,-0.000,170.000,0.072,-0.210,-0.160,-10.141,-0.001,0.002,-0.001,0,0,1500,1500,1000,1500
1577693035.491,0.007,0.001,-0.003,0.000,0.000,-0.000,-0.000,0.001,-0.001,379.000,408.000,433.000,398.000,3.790,4.080,4.330,3.980,0.016,-0.020,-0.000,-0.000,170.000,0.074,-0.203,-0.166,-10.140,-0.000,0.003,0.001,0,0,1500,1500,1000,1500
1577693035.513,0.008,0.000,-0.003,0.000,0.000,-0.000,-0.000,0.001,-0.000,379.000,408.000,433.000,398.000,3.790,4.080,4.330,3.980,0.016,-0.019,-0.000,-0.000,170.000,0.074,-0.194,-0.165,-10.146,0.001,-0.003,0.000,0,0,1500,1500,1000,1500
1577693035.535,0.010,-0.000,-0.002,0.000,0.000,-0.000,-0.000,0.002,-0.001,381.000,406.000,431.000,399.000,3.810,4.060,4.310,3.990,0.016,-0.019,-0.000,-0.000,170.000,0.074,-0.204,-0.160,-10.137,0.003,-0.002,-0.002,0,0,1500,1500,1000,1500
1577693035.557,0.012,-0.001,-0.001,0.000,0.000,-0.000,-0.000,0.003,-0.001,381.000,406.000,431.000,399.000,3.810,4.060,4.310,3.990,0.016,-0.019,-0.000,-0.000,170.000,0.074,-0.201,-0.143,-10.120,-0.000,0.002,0.001,0,0,1500,1500,1000,1500
1577693035.581,0.011,-0.001,-0.000,0.000,0.000,-0.000,-0.000,-0.000,-0.000,379.000,406.000,438.000,393.000,3.790,4.060,4.380,3.930,0.016,-0.019,-0.000,-0.000,170.000,0.073,-0.203,-0.143,-10.114,0.003,-0.001,0.001,0,0,1500,1500,1000,1500
1577693035.605,0.010,-0.001,0.000,0.000,0.000,-0.000,-0.000,-0.001,0.000,379.000,406.000,438.000,393.000,3.790,4.060,4.380,3.930,0.015,-0.020,-0.000,-0.000,170.000,0.073,-0.216,-0.140,-10.107,-0.000,0.002,-0.003,0,0,1500,1500,1000,1500
1577693035.623,0.009,-0.001,0.001,0.000,0.000,-0.000,-0.000,-0.001,0.000,379.000,406.000,438.000,393.000,3.790,4.060,4.380,3.930,0.015,-0.021,-0.000,-0.000,170.000,0.073,-0.233,-0.139,-10.124,-0.000,0.001,0.000,0,0,1500,1500,1000,1500
1577693035.649,0.008,-0.001,0.001,0.000,0.000,-0.000,-0.000,-0.001,0.000,379.000,406.000,438.000,393.000,3.790,4.060,4.380,3.930,0.015,-0.022,-0.000,-0.000,170.000,0.073,-0.238,-0.143,-10.126,-0.002,-0.003,0.001,0,0,1500,1500,1000,1500
1577693035.669,0.007,-0.001,0.001,0.000,0.000,-0.000,-0.000,-0.001,0.000,379.000,406.000,438.000,393.000,3.790,4.060,4.380,3.930,0.015,-0.022,-0.000,-0.000,170.000,0.072,-0.228,-0.147,-10.140,0.002,-0.003,0.000,0,0,1500,1500,1000,1500
1577693035.697,0.006,-0.001,0.001,0.000,0.000,-0.000,-0.000,-0.001,0.000,379.000,406.000,438.000,393.000,3.790,4.060,4.380,3.930,0.015,-0.022,-0.000,-0.000,170.000,0.073,-0.216,-0.150,-10.134,-0.001,-0.001,0.000,0,0,1500,1500,1000,1500
1577693035.718,0.005,-0.001,0.001,0.000,0.000,-0.000,-0.000,-0.001,-0.000,379.000,406.000,438.000,393.000,3.790,4.060,4.380,3.930,0.015,-0.022,-0.000,-0.000,170.000,0.073,-0.210,-0.149,-10.140,-0.001,0.002,0.000,0,0,1500,1500,1000,1500
1577693035.735,0.005,-0.001,0.001,0.000,0.000,-0.000,-0.000,-0.001,0.000,379.000,406.000,438.000,393.000,3.790,4.060,4.380,3.930,0.015,-0.022,-0.000,-0.000,170.000,0.075,-0.205,-0.161,-10.140,-0.000,-0.002,0.000,0,0,1500,1500,1000,1500
1577693035.758,0.004,-0.001,0.002,0.000,0.000,-0.000,-0.000,-0.001,-0.000,379.000,406.000,438.000,393.000,3.790,4.060,4.380,3.930,0.015,-0.022,-0.000,-0.000,170.000,0.075,-0.210,-0.157,-10.114,0.001,-0.001,0.001,0,0,1500,1500,1000,1500
1577693035.779,0.003,-0.001,0.001,0.000,0.000,-0.000,-0.000,-0.001,-0.000,379.000,406.000,438.000,393.000,3.790,4.060,4.380,3.930,0.015,-0.022,-0.000,-0.000,170.000,0.072,-0.209,-0.153,-10.113,-0.001,0.001,-0.002,0,0,1500,1500,1000,1500
1577693035.803,0.003,-0.001,0.001,0.000,0.000,-0.000,-0.000,-0.001,-0.000,379.000,406.000,438.000,393.000,3.790,4.060,4.380,3.930,0.015,-0.022,-0.000,-0.000,170.000,0.072,-0.207,-0.146,-10.104,-0.000,-0.002,-0.001,0,0,1500,1500,1000,1500
1577693035.823,0.002,0.000,0.001,0.000,0.000,-0.000,-0.000,-0.001,0.001,377.000,406.000,438.000,395.000,3.770,4.060,4.380,3.950,0.015,-0.022,-0.000,-0.000,170.000,0.075,-0.207,-0.144,-10.093,-0.002,-0.003,-0.001,0,0,1500,1500,1000,1500
1577693035.847,0.002,0.001,0.001,0.000,0.000,-0.000,-0.000,-0.001,0.001,377.000,406.000,438.000,395.000,3.770,4.060,4.380,3.950,0.014,-0.022,-0.000,-0.000,170.000,0.075,-0.220,-0.139,-10.111,0.002,0.002,-0.002,0,0,1500,1500,1000,1500
1577693035.867,0.001,0.002,0.001,0.000,0.000,-0.000,-0.000,-0.001,0.001,377.000,406.000,438.000,395.000,3.770,4.060,4.380,3.950,0.014,-0.022,-0.000,-0.000,170.000,0.073,-0.218,-0.126,-10.109,0.001,-0.002,0.001,0,0,1500,1500,1000,1500
1577693035.893,0.001,0.002,0.001,0.000,0.000,-0.000,-0.000,-0.001,0.001,377.000,406.000,438.000,395.000,3.770,4.060,4.380,3.950,0.013,-0.022,-0.000,-0.000,170.000,0.073,-0.222,-0.131,-10.100,-0.000,0.001,-0.003,0,0,1500,1500,1000,1500
1577693035.919,0.000,0.003,0.000,0.000,0.000,-0.000,-0.000,-0.001,0.001,377.000,406.000,438.000,395.000,3.770,4.060,4.380,3.950,0.013,-0.022,-0.000,-0.000,170.000,0.071,-0.217,-0.136,-10.122,-0.001,-0.006,-0.003,0,0,1500,1500,1000,1500
1577693035.940,0.000,0.004,-0.001,0.000,0.000,-0.000,-0.000,0.000,0.001,376.000,408.000,435.000,399.000,3.760,4.080,4.350,3.990,0.013,-0.022,-0.000,-0.000,170.000,0.073,-0.220,-0.141,-10.115,-0.000,-0.002,0.001,0,0,1500,1500,1000,1500
1577693035.960,0.001,0.004,-0.002,0.000,0.000,-0.000,-0.000,0.000,0.001,376.000,408.000,435.000,399.000,3.760,4.080,4.350,3.990,0.013,-0.022,-0.000,-0.000,170.000,0.073,-0.223,-0.144,-10.119,0.001,0.002,0.000,0,0,1500,1500,1000,1500
1577693035.982,-0.000,0.003,-0.005,-0.003,0.003,-0.000,-0.000,-0.003,0.001,378.000,412.000,435.000,396.000,3.780,4.120,4.350,3.960,0.014,-0.022,-0.000,-0.000,170.000,0.073,-0.217,-0.148,-10.118,-0.002,-0.002,0.000,0,0,1500,1500,1000,1500
1577693036.006,-0.001,0.002,-0.008,-0.003,0.003,-0.000,-0.000,-0.004,0.002,378.000,412.000,435.000,396.000,3.780,4.120,4.350,3.960,0.014,-0.022,-0.000,-0.000,170.000,0.073,-0.209,-0.141,-10.114,0.003,0.002,0.001,0,0,1500,1500,1000,1500
1577693036.026,-0.001,0.001,-0.009,0.003,-0.003,-0.000,0.000,0.000,-0.002,378.000,412.000,435.000,396.000,3.780,4.120,4.350,3.960,0.014,-0.022,-0.000,-0.000,170.000,0.074,-0.208,-0.141,-10.112,0.002,-0.002,0.001,0,0,1500,1500,1000,1500
1577693036.049,-0.002,0.000,-0.010,0.003,-0.003,-0.000,0.000,0.002,-0.004,378.000,412.000,435.000,396.000,3.780,4.120,4.350,3.960,0.014,-0.022,-0.000,-0.000,170.000,0.074,-0.200,-0.144,-10.129,-0.003,0.002,0.001,0,0,1500,1500,1000,1500
1577693036.069,-0.003,-0.001,-0.011,0.000,0.000,-0.000,-0.000,-0.000,-0.002,378.000,412.000,435.000,396.000,3.780,4.120,4.350,3.960,0.015,-0.021,-0.000,-0.000,170.000,0.074,-0.205,-0.147,-10.118,-0.000,-0.003,0.001,0,0,1500,1500,1000,1500
1577693036.093,-0.003,-0.001,-0.012,0.000,0.000,-0.000,-0.000,-0.001,-0.001,378.000,412.000,435.000,396.000,3.780,4.120,4.350,3.960,0.015,-0.021,-0.000,-0.000,170.000,0.074,-0.197,-0.160,-10.109,0.001,0.004,0.006,0,0,1500,1500,1000,1500
1577693036.114,-0.003,-0.001,-0.007,0.000,0.000,-0.000,-0.000,0.000,0.000,375.000,408.000,433.000,398.000,3.750,4.080,4.330,3.980,0.016,-0.021,-0.000,-0.000,170.000,0.074,-0.201,-0.166,-10.098,-0.001,-0.001,0.002,0,0,1500,1500,1000,1500
1577693036.140,-0.001,-0.001,-0.005,0.000,0.000,-0.000,-0.000,0.002,0.000,378.000,406.000,433.000,398.000,3.780,4.060,4.330,3.980,0.016,-0.021,-0.000,-0.000,170.000,0.073,-0.223,-0.162,-10.091,-0.001,0.001,-0.003,0,0,1500,1500,1000,1500
1577693036.162,0.000,-0.000,-0.003,0.000,0.000,-0.000,-0.000,0.002,0.000,378.000,406.000,433.000,398.000,3.780,4.060,4.330,3.980,0.015,-0.021,-0.000,-0.000,170.000,0.073,-0.229,-0.153,-10.100,-0.001,0.001,-0.003,0,0,1500,1500,1000,1500
1577693036.184,0.001,-0.000,-0.001,0.000,0.000,-0.000,-0.000,0.002,0.000,378.000,406.000,433.000,398.000,3.780,4.060,4.330,3.980,0.015,-0.021,-0.000,-0.000,170.000,0.073,-0.219,-0.141,-10.134,0.002,-0.002,-0.002,0,0,1500,1500,1000,1500
1577693036.209,0.003,0.000,0.000,0.000,0.000,-0.000,-0.000,0.002,0.000,378.000,406.000,433.000,398.000,3.780,4.060,4.330,3.980,0.015,-0.021,-0.000,-0.000,170.000,0.073,-0.222,-0.139,-10.127,-0.000,-0.001,0.001,0,0,1500,1500,1000,1500
1577693036.229,0.004,0.000,0.001,0.000,0.000,-0.000,-0.000,0.002,0.000,378.000,406.000,433.000,398.000,3.780,4.060,4.330,3.980,0.014,-0.020,-0.000,-0.000,170.000,0.073,-0.220,-0.134,-10.092,0.001,0.001,-0.001,0,0,1500,1500,1000,1500
1577693036.248,0.005,0.001,0.002,0.000,0.000,-0.000,-0.000,0.002,0.000,378.000,406.000,433.000,398.000,3.780,4.060,4.330,3.980,0.014,-0.020,-0.000,-0.000,170.000,0.073,-0.217,-0.122,-10.082,-0.001,0.003,-0.002,0,0,1500,1500,1000,1500
1577693036.269,0.004,-0.000,0.005,0.000,0.000,-0.000,-0.000,-0.001,-0.001,375.000,410.000,433.000,394.000,3.750,4.100,4.330,3.940,0.013,-0.021,-0.000,-0.000,170.000,0.075,-0.215,-0.124,-10.079,-0.000,0.001,0.000,0,0,1500,1500,1000,1500
1577693036.292,0.003,-0.001,0.007,0.000,0.000,-0.000,-0.000,-0.001,-0.001,375.000,410.000,433.000,394.000,3.750,4.100,4.330,3.940,0.013,-0.021,-0.000,-0.000,170.000,0.075,-0.222,-0.122,-10.092,0.002,0.005,-0.001,0,0,1500,1500,1000,1500
1577693036.313,0.002,-0.002,0.009,0.000,0.000,-0.000,-0.000,-0.001,-0.001,375.000,410.000,433.000,394.000,3.750,4.100,4.330,3.940,0.013,-0.022,-0.000,-0.000,170.000,0.074,-0.223,-0.133,-10.096,0.001,-0.001,-0.001,0,0,1500,1500,1000,1500
1577693036.342,0.001,-0.002,0.010,0.000,0.000,-0.000,-0.000,-0.001,-0.001,375.000,410.000,433.000,394.000,3.750,4.100,4.330,3.940,0.014,-0.022,-0.000,-0.000,170.000,0.074,-0.221,-0.144,-10.093,0.001,0.001,-0.002,0,0,1500,1500,1000,1500
1577693036.358,-0.000,-0.003,0.010,0.000,0.000,-0.000,-0.000,-0.001,-0.001,375.000,410.000,433.000,394.000,3.750,4.100,4.330,3.940,0.014,-0.022,-0.000,-0.000,170.000,0.071,-0.220,-0.145,-10.104,-0.002,0.001,-0.002,0,0,1500,1500,1000,1500
1577693036.379,-0.001,-0.004,0.010,0.000,0.000,-0.000,-0.000,-0.001,-0.001,375.000,410.000,433.000,394.000,3.750,4.100,4.330,3.940,0.014,-0.022,-0.000,-0.000,170.000,0.073,-0.219,-0.137,-10.095,0.004,-0.003,-0.001,0,0,1500,1500,1000,1500
1577693036.402,-0.002,-0.004,0.010,0.000,0.000,-0.000,-0.000,-0.001,-0.001,375.000,410.000,433.000,394.000,3.750,4.100,4.330,3.940,0.014,-0.023,-0.000,-0.000,170.000,0.073,-0.227,-0.144,-10.114,-0.001,0.001,0.000,0,0,1500,1500,1000,1500
1577693036.429,-0.002,-0.005,0.010,0.000,0.000,-0.000,-0.000,-0.001,-0.001,375.000,410.000,433.000,394.000,3.750,4.100,4.330,3.940,0.015,-0.023,-0.000,-0.000,170.000,0.072,-0.226,-0.149,-10.121,0.003,0.001,0.001,0,0,1500,1500,1000,1500
1577693036.447,-0.003,-0.005,0.010,0.000,0.000,-0.000,-0.000,-0.001,-0.001,375.000,410.000,433.000,394.000,3.750,4.100,4.330,3.940,0.015,-0.023,-0.000,-0.000,170.000,0.072,-0.231,-0.157,-10.128,-0.000,-0.005,-0.003,0,0,1500,1500,1000,1500
1577693036.473,-0.004,-0.006,0.009,0.000,0.000,-0.000,-0.000,-0.001,-0.001,375.000,410.000,433.000,394.000,3.750,4.100,4.330,3.940,0.015,-0.023,-0.000,-0.000,170.000,0.072,-0.235,-0.153,-10.136,0.001,0.002,0.000,0,0,1500,1500,1000,1500
1577693036.497,-0.004,-0.006,0.009,0.000,0.000,-0.000,-0.000,-0.001,-0.001,375.000,410.000,433.000,394.000,3.750,4.100,4.330,3.940,0.015,-0.024,-0.000,-0.000,170.000,0.072,-0.237,-0.156,-10.135,-0.000,-0.001,0.000,0,0,1500,1500,1000,1500
1577693036.512,-0.005,-0.007,0.009,0.000,0.000,-0.000,-0.000,-0.001,-0.001,375.000,410.000,433.000,394.000,3.750,4.100,4.330,3.940,0.016,-0.024,-0.000,-0.000,170.000,0.076,-0.234,-0.159,-10.119,0.002,-0.001,-0.001,0,0,1500,1500,1000,1500
1577693036.535,-0.006,-0.007,0.009,0.000,0.000,-0.000,-0.000,-0.001,-0.001,375.000,410.000,433.000,394.000,3.750,4.100,4.330,3.940,0.015,-0.024,-0.000,-0.000,170.000,0.073,-0.234,-0.148,-10.133,0.003,0.002,-0.001,0,0,1500,1500,1000,1500
1577693036.556,-0.006,-0.007,0.008,0.000,0.000,-0.000,-0.000,-0.001,-0.000,375.000,410.000,433.000,394.000,3.750,4.100,4.330,3.940,0.015,-0.024,-0.000,-0.000,170.000,0.070,-0.233,-0.150,-10.129,0.002,-0.001,-0.001,0,0,1500,1500,1000,1500
1577693036.579,-0.007,-0.008,0.008,0.000,0.000,-0.000,-0.000,-0.001,-0.000,375.000,410.000,433.000,394.000,3.750,4.100,4.330,3.940,0.016,-0.024,-0.000,-0.000,170.000,0.070,-0.237,-0.154,-10.136,-0.002,-0.001,-0.001,0,0,1500,1500,1000,1500
1577693036.600,-0.007,-0.008,0.008,0.000,0.000,-0.000,-0.000,-0.001,-0.000,375.000,410.000,433.000,394.000,3.750,4.100,4.330,3.940,0.015,-0.024,-0.001,-0.000,170.000,0.073,-0.225,-0.146,-10.115,0.001,-0.001,0.002,0,0,1500,1500,1000,1500
1577693036.621,-0.005,-0.008,0.004,0.000,0.000,-0.000,-0.000,0.001,-0.000,381.000,406.000,435.000,396.000,3.810,4.060,4.350,3.960,0.015,-0.023,-0.000,-0.000,170.000,0.074,-0.236,-0.150,-10.112,0.002,0.001,-0.001,0,0,1500,1500,1000,1500
1577693036.644,-0.004,-0.008,0.001,0.000,0.000,-0.000,-0.000,0.002,-0.000,381.000,406.000,435.000,396.000,3.810,4.060,4.350,3.960,0.015,-0.023,-0.000,-0.000,170.000,0.074,-0.243,-0.148,-10.124,-0.000,-0.002,0.000,0,0,1500,1500,1000,1500
1577693036.668,-0.003,-0.007,-0.002,0.000,0.000,-0.000,-0.000,0.001,0.001,376.000,408.000,435.000,400.000,3.760,4.080,4.350,4.000,0.015,-0.023,-0.000,-0.000,170.000,0.072,-0.244,-0.148,-10.118,0.001,-0.002,-0.001,0,0,1500,1500,1000,1500
1577693036.690,-0.003,-0.005,-0.005,0.000,0.000,-0.000,-0.000,0.001,0.002,376.000,408.000,435.000,400.000,3.760,4.080,4.350,4.000,0.014,-0.023,-0.000,-0.000,170.000,0.072,-0.240,-0.141,-10.107,-0.002,0.002,-0.001,0,0,1500,1500,1000,1500
1577693036.713,-0.002,-0.004,-0.007,0.000,0.000,-0.000,-0.000,0.001,0.002,376.000,408.000,435.000,400.000,3.760,4.080,4.350,4.000,0.014,-0.023,-0.001,-0.000,170.000,0.072,-0.257,-0.145,-10.099,-0.000,0.001,0.002,0,0,1500,1500,1000,1500
1577693036.735,-0.001,-0.003,-0.008,0.000,0.000,-0.000,-0.000,0.001,0.002,376.000,408.000,435.000,400.000,3.760,4.080,4.350,4.000,0.014,-0.024,-0.000,-0.000,170.000,0.073,-0.257,-0.147,-10.114,0.003,0.001,-0.001,0,0,1500,1500,1000,1500
1577693036.757,-0.002,-0.003,-0.008,0.000,0.000,-0.000,-0.000,-0.001,0.000,376.000,412.000,435.000,396.000,3.760,4.120,4.350,3.960,0.014,-0.025,-0.000,-0.000,170.000,0.074,-0.272,-0.145,-10.130,0.001,0.002,0.000,0,0,1500,1500,1000,1500
1577693036.780,-0.003,-0.003,-0.009,0.000,0.000,-0.000,-0.000,-0.001,-0.000,376.000,412.000,435.000,396.000,3.760,4.120,4.350,3.960,0.014,-0.025,-0.000,-0.000,170.000,0.074,-0.266,-0.138,-10.125,-0.001,0.001,0.002,0,0,1500,1500,1000,1500
1577693036.799,-0.002,-0.004,-0.007,0.000,0.003,-0.000,-0.000,0.001,0.002,379.000,408.000,433.000,396.000,3.790,4.080,4.330,3.960,0.014,-0.026,-0.000,-0.000,170.000,0.073,-0.269,-0.130,-10.140,-0.000,0.001,-0.001,0,0,1500,1500,1000,1500
1577693036.821,-0.002,-0.004,-0.006,0.000,0.003,-0.000,-0.000,0.001,0.002,379.000,408.000,433.000,396.000,3.790,4.080,4.330,3.960,0.014,-0.025,-0.000,-0.000,170.000,0.073,-0.261,-0.135,-10.130,-0.002,-0.002,0.001,0,0,1500,1500,1000,1500
1577693036.842,-0.001,-0.004,-0.008,0.000,0.000,0.000,0.000,0.001,0.001,379.000,408.000,437.000,398.000,3.790,4.080,4.370,3.980,0.014,-0.025,-0.000,-0.000,170.000,0.075,-0.259,-0.147,-10.140,0.001,-0.002,0.001,0,0,1500,1500,1000,1500
1577693036.864,-0.001,-0.003,-0.009,0.000,0.000,0.000,0.000,0.001,0.001,379.000,408.000,437.000,398.000,3.790,4.080,4.370,3.980,0.015,-0.025,-0.000,-0.000,170.000,0.076,-0.258,-0.186,-10.093,0.005,-0.005,0.000,0,0,1500,1500,1000,1500
1577693036.886,-0.000,-0.002,-0.010,0.000,0.000,0.000,0.000,0.001,0.001,379.000,408.000,437.000,398.000,3.790,4.080,4.370,3.980,0.017,-0.026,-0.000,-0.000,170.000,0.076,-0.287,-0.243,-10.022,-0.023,0.013,0.078,0,0,1500,1500,1000,1500
1577693036.912,-0.000,-0.002,-0.011,0.000,0.000,0.000,0.000,0.000,0.001,379.000,408.000,437.000,398.000,3.790,4.080,4.370,3.980,0.021,-0.023,0.001,-0.000,170.000,0.076,-0.159,-0.358,-9.951,-0.114,-0.034,0.003,0,0,1500,1500,1000,1500
1577693036.931,-0.001,-0.001,-0.008,-0.000,0.000,0.000,0.000,-0.000,0.001,376.000,406.000,438.000,395.000,3.760,4.060,4.380,3.950,0.024,-0.023,0.001,-0.000,170.000,0.070,-0.200,-0.377,-9.954,0.020,0.063,-0.079,0,0,1500,1500,1000,1500
1577693036.959,0.000,-0.002,-0.006,-0.000,0.000,0.000,0.000,0.001,-0.001,379.000,408.000,433.000,396.000,3.790,4.080,4.330,3.960,0.026,-0.022,-0.000,-0.000,170.000,0.074,-0.231,-0.318,-9.953,-0.019,0.009,-0.026,0,0,1500,1500,1000,1500
1577693036.979,0.001,-0.002,-0.004,0.000,0.000,0.000,0.000,0.001,-0.001,379.000,408.000,433.000,396.000,3.790,4.080,4.330,3.960,0.026,-0.021,-0.001,-0.001,170.000,0.074,-0.176,-0.232,-10.109,0.060,0.029,0.074,0,0,1500,1500,1000,1500
1577693036.998,0.001,-0.003,-0.002,-0.000,-0.003,0.000,0.000,0.001,-0.003,379.000,408.000,433.000,396.000,3.790,4.080,4.330,3.960,0.025,-0.019,0.000,-0.001,170.000,0.076,-0.184,-0.198,-10.089,-0.019,0.005,0.002,0,0,1500,1500,1000,1500
1577693037.024,0.002,-0.003,-0.000,0.000,-0.003,0.000,0.000,0.001,-0.003,379.000,408.000,433.000,396.000,3.790,4.080,4.330,3.960,0.025,-0.019,0.000,-0.001,170.000,0.076,-0.208,-0.268,-10.065,0.042,0.009,-0.046,0,0,1500,1500,1000,1500
1577693037.045,0.001,-0.004,-0.001,-0.000,0.000,0.000,-0.000,-0.000,-0.001,377.000,410.000,435.000,396.000,3.770,4.100,4.350,3.960,0.024,-0.020,-0.000,-0.001,170.000,0.072,-0.219,-0.187,-10.122,-0.028,-0.017,-0.015,0,0,1500,1500,1000,1500
1577693037.066,0.001,-0.004,-0.002,0.000,0.000,0.000,-0.000,-0.001,-0.000,377.000,410.000,435.000,396.000,3.770,4.100,4.350,3.960,0.023,-0.021,-0.001,-0.001,170.000,0.072,-0.221,-0.214,-10.160,0.027,-0.008,0.003,0,0,1500,1500,1000,1500
1577693037.085,0.001,-0.004,-0.003,0.000,0.000,0.000,-0.000,0.000,0.000,379.000,408.000,435.000,397.000,3.790,4.080,4.350,3.970,0.023,-0.022,-0.000,-0.001,170.000,0.075,-0.261,-0.212,-10.140,-0.002,0.013,0.053,0,0,1500,1500,1000,1500
1577693037.108,0.002,-0.004,-0.004,0.000,0.000,0.000,-0.000,0.000,0.000,379.000,408.000,435.000,397.000,3.790,4.080,4.350,3.970,0.023,-0.023,0.000,-0.001,170.000,0.072,-0.274,-0.227,-10.192,-0.024,-0.004,0.024,0,0,1500,1500,1000,1500
1577693037.129,0.002,-0.004,-0.005,-0.000,0.000,0.000,-0.000,0.000,0.000,379.000,408.000,435.000,397.000,3.790,4.080,4.350,3.970,0.021,-0.024,0.001,-0.001,170.000,0.072,-0.257,-0.189,-10.071,0.004,0.006,-0.048,0,0,1500,1500,1000,1500
1577693037.152,0.003,-0.004,-0.006,-0.000,0.000,0.000,-0.000,0.000,0.000,379.000,408.000,435.000,397.000,3.790,4.080,4.350,3.970,0.021,-0.022,-0.000,-0.001,170.000,0.072,-0.189,-0.195,-10.114,0.012,-0.009,-0.007,0,0,1500,1500,1000,1500
1577693037.174,0.004,-0.003,-0.001,0.000,0.000,0.000,-0.000,0.002,0.001,377.000,404.000,433.000,397.000,3.770,4.040,4.330,3.970,0.020,-0.024,-0.000,-0.001,170.000,0.076,-0.293,-0.162,-10.109,0.014,-0.022,0.013,0,0,1500,1500,1000,1500
1577693037.195,0.003,-0.002,-0.002,0.000,0.000,0.000,-0.000,-0.001,0.001,376.000,408.000,438.000,396.000,3.760,4.080,4.380,3.960,0.020,-0.026,0.000,-0.001,170.000,0.072,-0.298,-0.232,-10.152,-0.003,0.002,0.029,0,0,1500,1500,1000,1500
1577693037.222,0.002,-0.001,-0.002,-0.000,0.000,0.000,-0.000,-0.001,0.001,376.000,408.000,438.000,396.000,3.760,4.080,4.380,3.960,0.022,-0.026,0.001,-0.001,170.000,0.072,-0.267,-0.290,-10.157,-0.015,0.001,0.007,0,0,1500,1500,1000,1500
1577693037.246,0.001,-0.000,-0.003,-0.000,0.000,0.000,-0.000,-0.001,0.001,376.000,408.000,438.000,396.000,3.760,4.080,4.380,3.960,0.023,-0.026,0.001,0.001,170.000,0.076,-0.250,-0.285,-10.070,0.022,0.052,-0.003,0,0,1500,1500,1000,1500
1577693037.263,-0.000,0.001,-0.003,-0.000,0.000,0.000,-0.000,-0.001,0.001,376.000,408.000,438.000,396.000,3.760,4.080,4.380,3.960,0.024,-0.026,0.001,0.001,170.000,0.076,-0.264,-0.260,-10.048,0.023,-0.039,-0.030,0,0,1500,1500,1000,1500
1577693037.284,-0.001,0.001,-0.003,-0.000,0.000,0.000,-0.000,-0.001,0.001,376.000,408.000,438.000,396.000,3.760,4.080,4.380,3.960,0.024,-0.026,0.000,0.001,170.000,0.074,-0.255,-0.243,-10.160,-0.011,-0.103,-0.001,0,0,1500,1500,1000,1500
1577693037.308,-0.002,0.002,-0.003,-0.000,0.000,0.000,-0.000,-0.001,0.001,376.000,408.000,438.000,396.000,3.760,4.080,4.380,3.960,0.023,-0.029,0.000,0.001,171.000,0.074,-0.310,-0.224,-10.094,-0.009,0.003,0.035,0,0,1500,1500,1000,1500
1577693037.328,-0.001,0.002,-0.001,-0.000,0.000,0.000,-0.000,0.001,-0.000,379.000,406.000,433.000,395.000,3.790,4.060,4.330,3.950,0.025,-0.031,0.001,0.001,171.000,0.072,-0.399,-0.297,-10.009,-0.018,0.024,0.020,0,0,1500,1500,1000,1500
1577693037.350,-0.001,0.001,-0.001,-0.000,0.000,0.000,-0.000,0.000,-0.001,378.000,408.000,435.000,396.000,3.780,4.080,4.350,3.960,0.024,-0.032,0.001,0.001,171.000,0.072,-0.358,-0.205,-10.062,0.024,-0.042,-0.040,0,0,1500,1500,1000,1500
1577693037.374,-0.000,0.001,-0.002,-0.000,0.000,0.000,-0.000,0.000,-0.000,378.000,408.000,435.000,396.000,3.780,4.080,4.350,3.960,0.021,-0.033,0.000,0.001,171.000,0.072,-0.339,-0.126,-10.324,0.021,0.045,-0.035,0,0,1500,1500,1000,1500
1577693037.400,-0.000,0.001,-0.002,-0.000,0.000,0.000,-0.000,0.000,0.000,378.000,408.000,435.000,396.000,3.780,4.080,4.350,3.960,0.021,-0.032,-0.000,0.001,171.000,0.072,-0.317,-0.181,-10.036,0.019,-0.025,0.020,0,0,1500,1500,1000,1500
1577693037.417,-0.000,0.001,-0.002,0.000,0.000,0.000,-0.000,0.000,-0.000,378.000,408.000,435.000,396.000,3.780,4.080,4.350,3.960,0.018,-0.030,0.000,0.001,171.000,0.072,-0.241,-0.105,-10.042,0.059,-0.074,0.052,0,0,1500,1500,1000,1500
1577693037.438,0.000,0.000,-0.002,-0.000,0.000,0.000,-0.000,0.001,0.000,378.000,408.000,435.000,396.000,3.780,4.080,4.350,3.960,0.019,-0.033,0.001,0.001,171.000,0.074,-0.386,-0.168,-9.926,0.009,0.111,0.020,0,0,1500,1500,1000,1500
1577693037.463,0.000,0.000,-0.002,-0.000,0.000,0.000,-0.000,-0.000,-0.000,378.000,408.000,435.000,396.000,3.780,4.080,4.350,3.960,0.016,-0.030,0.001,0.001,171.000,0.074,-0.272,-0.056,-9.905,0.041,-0.142,-0.046,0,0,1500,1500,1000,1500
1577693037.484,0.000,0.000,-0.002,-0.000,0.000,0.000,-0.000,0.000,0.000,378.000,408.000,435.000,396.000,3.780,4.080,4.350,3.960,0.016,-0.033,0.001,0.001,171.000,0.074,-0.325,-0.173,-9.920,-0.088,-0.020,-0.051,0,0,1500,1500,1000,1500
1577693037.505,0.000,-0.000,-0.002,-0.000,0.000,0.000,-0.000,0.000,-0.000,378.000,408.000,435.000,396.000,3.780,4.080,4.350,3.960,0.017,-0.031,-0.000,-0.001,171.000,0.074,-0.232,-0.225,-9.643,0.054,-0.061,0.019,0,0,1500,1500,1000,1500
1577693037.526,0.001,-0.000,-0.002,0.000,0.000,0.000,-0.000,0.000,-0.000,378.000,408.000,435.000,396.000,3.780,4.080,4.350,3.960,0.019,-0.031,-0.000,-0.001,171.000,0.073,-0.271,-0.237,-10.002,-0.011,0.126,0.048,0,0,1500,1500,1000,1500
1577693037.550,0.001,-0.000,-0.002,0.000,0.000,0.000,-0.000,0.001,-0.000,378.000,408.000,435.000,396.000,3.780,4.080,4.350,3.960,0.022,-0.031,0.001,-0.001,171.000,0.073,-0.386,-0.282,-9.627,0.099,-0.123,0.008,0,0,1500,1500,1000,1500
1577693037.570,0.001,-0.001,-0.002,-0.000,0.000,0.000,-0.000,-0.000,-0.000,378.000,408.000,435.000,396.000,3.780,4.080,4.350,3.960,0.025,-0.034,0.001,-0.001,171.000,0.075,-0.363,-0.299,-9.805,-0.134,0.087,-0.036,0,0,1500,1500,1000,1500
1577693037.596,0.001,-0.001,-0.002,-0.000,0.000,0.000,-0.000,-0.000,-0.000,378.000,408.000,435.000,396.000,3.780,4.080,4.350,3.960,0.023,-0.032,0.000,-0.001,170.000,0.073,-0.306,-0.244,-10.111,0.001,0.043,-0.016,0,0,1500,1500,1000,1500
1577693037.619,0.001,-0.001,-0.002,-0.000,0.000,0.000,-0.000,0.000,-0.000,378.000,408.000,435.000,396.000,3.780,4.080,4.350,3.960,0.025,-0.032,0.000,-0.001,170.000,0.073,-0.353,-0.288,-9.870,0.071,0.109,0.014,0,0,1500,1500,1000,1500
1577693037.640,0.001,-0.001,-0.002,-0.000,0.000,0.000,-0.000,-0.000,-0.000,378.000,408.000,435.000,396.000,3.780,4.080,4.350,3.960,0.025,-0.027,0.000,-0.001,170.000,0.073,-0.174,-0.203,-9.962,-0.184,-0.047,0.010,0,0,1500,1500,1000,1500
1577693037.661,0.001,-0.001,-0.002,-0.000,0.000,0.000,-0.000,0.000,-0.000,378.000,408.000,435.000,396.000,3.780,4.080,4.350,3.960,0.021,-0.024,0.000,-0.001,170.000,0.073,-0.111,-0.197,-9.936,0.067,-0.101,0.020,0,0,1500,1500,1000,1500
1577693037.682,0.001,-0.001,-0.002,-0.000,0.000,0.000,-0.000,0.001,0.000,378.000,408.000,435.000,396.000,3.780,4.080,4.350,3.960,0.024,-0.023,0.001,-0.001,170.000,0.073,-0.167,-0.298,-10.354,-0.046,0.155,0.012,0,0,1500,1500,1000,1500
1577693037.705,0.001,-0.001,-0.002,-0.000,0.000,0.000,-0.000,0.000,-0.001,378.000,408.000,435.000,396.000,3.780,4.080,4.350,3.960,0.019,-0.017,0.001,-0.001,170.000,0.073,-0.071,-0.071,-10.296,0.061,0.074,-0.025,0,0,1500,1500,1000,1500
1577693037.726,0.003,-0.001,0.003,-0.000,0.000,0.000,-0.000,0.002,0.001,378.000,403.000,433.000,396.000,3.780,4.030,4.330,3.960,0.020,-0.015,0.001,-0.001,170.000,0.074,-0.158,-0.224,-10.472,-0.052,-0.159,-0.009,0,0,1500,1500,1000,1500
1577693037.753,0.004,-0.000,0.006,-0.000,0.000,0.000,-0.000,0.002,0.001,378.000,403.000,433.000,396.000,3.780,4.030,4.330,3.960,0.021,-0.021,0.000,-0.001,170.000,0.074,-0.326,-0.270,-9.956,0.111,0.069,0.034,0,0,1500,1500,1000,1500
1577693037.770,0.005,-0.000,0.009,-0.000,0.000,0.000,-0.000,0.001,-0.000,378.000,403.000,433.000,396.000,3.780,4.030,4.330,3.960,0.016,-0.020,0.001,-0.001,170.000,0.074,-0.248,0.048,-10.466,0.133,0.026,0.002,0,0,1500,1500,1000,1500
1577693037.792,0.006,-0.001,0.005,-0.000,0.000,0.000,-0.000,0.001,0.001,378.000,410.000,431.000,400.000,3.780,4.100,4.310,4.000,0.018,-0.022,0.001,-0.001,170.000,0.073,-0.299,-0.181,-9.794,-0.058,-0.134,-0.046,0,0,1500,1500,1000,1500
1577693037.814,0.007,-0.001,0.002,-0.000,0.000,0.000,-0.000,0.001,-0.000,378.000,410.000,431.000,400.000,3.780,4.100,4.310,4.000,0.018,-0.023,0.000,-0.001,170.000,0.073,-0.183,-0.208,-10.208,-0.116,0.090,-0.007,0,0,1500,1500,1000,1500
1577693037.836,0.008,-0.001,-0.001,-0.000,0.000,0.000,-0.000,0.001,-0.001,378.000,410.000,431.000,400.000,3.780,4.100,4.310,4.000,0.014,-0.017,0.000,-0.001,170.000,0.075,-0.053,-0.056,-9.963,0.222,0.031,0.011,0,0,1500,1500,1000,1500
1577693037.863,0.009,-0.002,-0.003,-0.000,0.000,0.000,-0.000,0.001,-0.000,378.000,410.000,431.000,400.000,3.780,4.100,4.310,4.000,0.015,-0.009,0.000,-0.001,170.000,0.075,0.124,-0.092,-10.502,-0.002,-0.150,0.021,0,0,1500,1500,1000,1500
1577693037.885,0.010,-0.002,-0.004,-0.000,0.000,0.000,-0.000,0.002,-0.000,378.000,410.000,431.000,400.000,3.780,4.100,4.310,4.000,0.016,-0.013,0.001,-0.001,171.000,0.075,-0.207,-0.198,-10.091,0.051,0.210,0.019,0,0,1500,1500,1000,1500
1577693037.908,0.010,-0.002,-0.000,-0.003,-0.000,0.000,-0.000,-0.002,-0.000,377.000,406.000,433.000,395.000,3.770,4.060,4.330,3.950,0.013,-0.012,0.001,-0.001,171.000,0.074,-0.199,0.014,-9.915,-0.060,0.022,-0.022,0,0,1500,1500,1000,1500
1577693037.926,0.010,-0.002,0.003,-0.003,-0.000,0.000,-0.000,-0.003,0.000,377.000,406.000,433.000,395.000,3.770,4.060,4.330,3.950,0.009,-0.011,0.001,-0.001,171.000,0.074,-0.084,-0.020,-10.196,0.068,-0.171,-0.001,0,0,1500,1500,1000,1500
1577693037.947,0.009,-0.003,0.004,-0.000,0.000,-0.000,-0.000,-0.001,0.000,377.000,408.000,433.000,395.000,3.770,4.080,4.330,3.950,0.016,-0.014,0.001,-0.001,171.000,0.073,-0.131,-0.359,-10.267,-0.207,0.131,0.009,0,0,1500,1500,1000,1500
1577693037.968,0.009,-0.003,0.005,-0.000,0.000,-0.000,-0.000,-0.000,-0.001,377.000,408.000,433.000,395.000,3.770,4.080,4.330,3.950,0.007,-0.019,0.001,-0.001,171.000,0.073,-0.420,0.131,-10.215,0.190,0.103,0.018,0,0,1500,1500,1000,1500
1577693037.993,0.008,-0.004,0.006,-0.000,0.000,-0.000,-0.000,-0.001,0.000,377.000,408.000,433.000,395.000,3.770,4.080,4.330,3.950,0.010,-0.021,0.001,-0.001,171.000,0.073,-0.327,-0.116,-10.559,0.140,0.013,0.023,0,0,1500,1500,1000,1500
1577693038.014,0.008,-0.004,0.006,-0.000,0.000,-0.000,-0.000,-0.001,-0.000,377.000,408.000,433.000,395.000,3.770,4.080,4.330,3.950,0.016,-0.028,0.001,-0.001,171.000,0.073,-0.499,-0.277,-10.037,-0.003,0.040,-0.010,0,0,1500,1500,1000,1500
1577693038.037,0.008,-0.004,0.006,-0.000,0.000,-0.000,-0.000,-0.001,-0.001,377.000,408.000,433.000,395.000,3.770,4.080,4.330,3.950,0.021,-0.038,0.001,-0.001,171.000,0.074,-0.671,-0.328,-9.550,-0.179,0.032,-0.018,0,0,1500,1500,1000,1500
1577693038.057,0.007,-0.005,0.007,-0.000,0.000,-0.000,-0.000,-0.002,-0.001,377.000,408.000,433.000,395.000,3.770,4.080,4.330,3.950,0.020,-0.038,0.001,-0.001,171.000,0.074,-0.366,-0.249,-10.338,0.152,-0.010,0.023,0,0,1500,1500,1000,1500
1577693038.079,0.007,-0.005,0.007,-0.000,0.000,-0.000,-0.000,-0.001,-0.001,377.000,408.000,433.000,395.000,3.770,4.080,4.330,3.950,0.026,-0.041,0.001,-0.001,171.000,0.073,-0.485,-0.354,-9.871,0.028,-0.062,0.009,0,0,1500,1500,1000,1500
1577693038.104,0.007,-0.005,0.007,-0.000,0.000,-0.000,-0.000,-0.001,-0.001,377.000,408.000,433.000,395.000,3.770,4.080,4.330,3.950,0.029,-0.037,0.001,-0.001,171.000,0.073,-0.235,-0.365,-10.354,0.106,-0.048,0.014,0,0,1500,1500,1000,1500
1577693038.129,0.007,-0.006,0.007,-0.000,0.000,-0.000,-0.000,-0.000,-0.000,377.000,408.000,433.000,395.000,3.770,4.080,4.330,3.950,0.039,-0.034,0.002,-0.001,171.000,0.073,-0.232,-0.639,-9.793,-0.125,-0.198,-0.019,0,0,1500,1500,1000,1500
1577693038.146,0.006,-0.006,0.007,-0.000,0.000,-0.000,-0.000,0.000,-0.001,377.000,408.000,433.000,395.000,3.770,4.080,4.330,3.950,0.042,-0.032,0.001,-0.001,171.000,0.074,-0.158,-0.567,-10.084,-0.104,-0.045,-0.019,0,0,1500,1500,1000,1500
1577693038.168,0.006,-0.006,0.006,-0.000,0.000,-0.000,-0.000,0.000,-0.001,377.000,408.000,433.000,395.000,3.770,4.080,4.330,3.950,0.037,-0.021,0.001,-0.001,171.000,0.072,0.111,-0.274,-10.437,0.172,-0.075,-0.005,0,0,1500,1500,1000,1500
1577693038.191,0.006,-0.006,0.006,-0.000,0.000,-0.000,-0.000,0.001,-0.000,377.000,408.000,433.000,395.000,3.770,4.080,4.330,3.950,0.040,-0.019,0.001,-0.001,171.000,0.072,-0.080,-0.412,-10.056,-0.063,-0.103,0.002,0,0,1500,1500,1000,1500
1577693038.212,0.006,-0.007,0.007,-0.000,0.000,-0.000,-0.000,0.000,-0.000,377.000,408.000,433.000,395.000,3.770,4.080,4.330,3.950,0.042,-0.014,0.001,-0.001,171.000,0.076,0.019,-0.510,-10.355,-0.220,0.164,0.023,0,0,1500,1500,1000,1500
1577693038.235,0.006,-0.007,0.007,-0.000,0.000,-0.000,-0.000,0.001,-0.001,377.000,408.000,433.000,395.000,3.770,4.080,4.330,3.950,0.026,-0.007,0.001,-0.001,171.000,0.076,0.067,0.078,-10.657,0.221,-0.021,0.008,0,0,1500,1500,1000,1500
1577693038.261,0.007,-0.007,0.006,-0.000,0.000,-0.000,-0.000,0.002,0.000,379.000,406.000,431.000,397.000,3.790,4.060,4.310,3.970,0.012,-0.002,0.001,-0.001,171.000,0.072,0.102,0.394,-11.019,0.321,0.276,0.007,0,0,1500,1500,1000,1500
1577693038.282,0.008,-0.007,0.005,-0.000,0.000,-0.000,-0.000,0.003,0.002,379.000,406.000,431.000,397.000,3.790,4.060,4.310,3.970,0.006,0.003,0.001,-0.002,171.000,0.072,0.004,0.259,-10.496,-0.189,-0.334,-0.020,0,0,1500,1500,1000,1500
1577693038.299,0.007,-0.008,0.005,0.000,-0.003,-0.000,-0.000,-0.000,-0.001,377.000,408.000,435.000,393.000,3.770,4.080,4.350,3.930,-0.005,-0.011,0.001,-0.002,171.000,0.070,-0.362,0.260,-10.205,-0.057,0.135,0.004,0,0,1500,1500,1000,1500
1577693038.322,0.007,-0.008,0.003,-0.000,0.000,-0.000,-0.000,-0.001,0.000,377.000,410.000,431.000,397.000,3.770,4.100,4.310,3.970,-0.012,-0.011,0.001,-0.002,171.000,0.075,-0.183,0.308,-10.646,0.183,0.141,0.017,0,0,1500,1500,1000,1500
1577693038.348,0.007,-0.009,0.003,-0.000,0.000,-0.000,-0.000,-0.000,0.000,377.000,410.000,431.000,397.000,3.770,4.100,4.310,3.970,-0.013,-0.013,0.001,-0.002,171.000,0.075,-0.262,0.238,-10.748,-0.174,0.060,-0.003,0,0,1500,1500,1000,1500
1577693038.368,0.007,-0.009,0.001,-0.000,0.003,-0.000,-0.000,-0.001,0.002,377.000,410.000,431.000,397.000,3.770,4.100,4.310,3.970,-0.019,-0.011,0.001,-0.002,171.000,0.072,-0.083,0.322,-10.520,0.356,0.046,-0.007,0,0,1500,1500,1000,1500
1577693038.390,0.007,-0.010,0.000,-0.000,0.003,-0.000,-0.000,-0.000,0.003,377.000,410.000,431.000,397.000,3.770,4.100,4.310,3.970,-0.005,-0.008,0.001,-0.002,171.000,0.072,0.001,-0.227,-10.171,-0.314,-0.296,-0.010,0,0,1500,1500,1000,1500
1577693038.412,0.006,-0.008,-0.005,-0.000,0.000,-0.000,-0.000,-0.000,0.001,376.000,410.000,438.000,399.000,3.760,4.100,4.380,3.990,-0.003,-0.021,0.001,-0.002,171.000,0.074,-0.439,-0.170,-9.835,-0.016,0.285,0.010,0,0,1500,1500,1000,1500
1577693038.437,0.005,-0.006,-0.009,-0.000,0.000,-0.000,-0.000,-0.002,0.001,376.000,410.000,438.000,399.000,3.760,4.100,4.380,3.990,0.010,-0.031,0.001,-0.002,171.000,0.074,-0.757,-0.505,-9.683,-0.077,0.138,0.008,0,0,1500,1500,1000,1500
1577693038.457,0.004,-0.005,-0.012,-0.000,0.000,-0.000,-0.000,-0.004,-0.000,376.000,410.000,438.000,399.000,3.760,4.100,4.380,3.990,0.014,-0.032,0.001,-0.002,171.000,0.075,-0.383,-0.326,-10.124,0.165,0.066,-0.018,0,0,1500,1500,1000,1500
1577693038.481,0.003,-0.004,-0.014,-0.000,0.000,-0.000,-0.000,-0.002,0.000,376.000,410.000,438.000,399.000,3.760,4.100,4.380,3.990,0.015,-0.029,0.001,-0.002,171.000,0.075,-0.217,-0.094,-10.620,-0.095,-0.308,-0.003,0,0,1500,1500,1000,1500
1577693038.499,0.002,-0.002,-0.015,-0.000,0.000,-0.000,-0.000,-0.001,0.002,376.000,410.000,438.000,399.000,3.760,4.100,4.380,3.990,0.022,-0.032,0.001,-0.002,171.000,0.075,-0.279,-0.518,-10.315,-0.111,0.156,-0.015,0,0,1500,1500,1000,1500
1577693038.527,0.002,-0.003,-0.009,-0.000,0.000,-0.000,-0.000,-0.000,-0.001,378.000,408.000,433.000,393.000,3.780,4.080,4.330,3.930,0.043,-0.027,0.000,-0.002,171.000,0.074,-0.178,-1.082,-10.092,-0.370,-0.257,-0.020,0,0,1500,1500,1000,1500
1577693038.545,0.002,-0.004,-0.005,-0.000,0.000,-0.000,-0.000,0.000,-0.004,378.000,408.000,433.000,393.000,3.780,4.080,4.330,3.930,0.043,-0.029,-0.000,-0.002,171.000,0.074,-0.252,-0.586,-10.311,0.170,0.394,0.034,0,0,1500,1500,1000,1500
1577693038.568,0.003,-0.005,-0.004,0.000,0.000,-0.000,-0.000,0.001,-0.002,379.000,408.000,433.000,398.000,3.790,4.080,4.330,3.980,0.045,-0.018,0.001,-0.002,171.000,0.075,-0.051,-0.429,-10.325,0.094,-0.252,0.006,0,0,1500,1500,1000,1500
1577693038.591,0.004,-0.005,-0.004,-0.000,0.000,-0.000,-0.000,0.002,-0.001,379.000,408.000,433.000,398.000,3.790,4.080,4.330,3.980,0.041,-0.016,0.001,-0.002,171.000,0.075,-0.013,-0.278,-10.695,0.081,-0.058,-0.010,0,0,1500,1500,1000,1500
1577693038.611,0.004,-0.005,-0.000,-0.000,0.000,-0.000,-0.000,0.002,-0.000,377.000,408.000,431.000,396.000,3.770,4.080,4.310,3.960,0.037,-0.017,0.000,-0.002,171.000,0.074,-0.194,-0.215,-10.190,-0.046,-0.108,-0.015,0,0,1500,1500,1000,1500
1577693038.635,0.005,-0.006,0.002,-0.000,0.000,-0.000,-0.000,0.001,0.000,377.000,408.000,431.000,396.000,3.770,4.080,4.310,3.960,0.040,-0.026,0.000,-0.002,171.000,0.074,-0.464,-0.498,-9.736,0.014,0.217,0.008,0,0,1500,1500,1000,1500
1577693038.657,0.005,-0.006,0.005,0.000,-0.003,-0.000,-0.000,0.000,-0.003,377.000,408.000,431.000,396.000,3.770,4.080,4.310,3.960,0.039,-0.030,0.000,-0.002,171.000,0.075,-0.546,-0.340,-9.614,-0.255,0.038,0.002,0,0,1500,1500,1000,1500
1577693038.679,0.006,-0.007,0.007,0.000,-0.003,-0.000,-0.000,-0.001,-0.004,377.000,408.000,431.000,396.000,3.770,4.080,4.310,3.960,0.024,-0.032,0.000,-0.002,171.000,0.075,-0.407,0.069,-10.253,0.204,0.245,0.012,0,0,1500,1500,1000,1500
1577693038.701,0.008,-0.005,0.007,-0.003,-0.000,-0.000,-0.000,-0.001,0.001,378.000,404.000,433.000,400.000,3.780,4.040,4.330,4.000,0.022,-0.027,0.001,-0.002,171.000,0.074,-0.234,-0.067,-10.308,0.060,-0.391,-0.023,0,0,1500,1500,1000,1500
1577693038.724,0.008,-0.005,0.005,0.003,0.000,-0.000,-0.000,0.002,0.001,379.000,406.000,435.000,397.000,3.790,4.060,4.350,3.970,0.019,-0.028,0.000,-0.002,171.000,0.074,-0.129,-0.114,-10.536,0.043,-0.146,0.018,0,0,1500,1500,1000,1500
1577693038.747,0.008,-0.004,0.003,0.003,0.000,-0.000,-0.000,0.004,0.001,379.000,406.000,435.000,397.000,3.790,4.060,4.350,3.970,0.021,-0.025,0.000,-0.002,171.000,0.074,-0.107,-0.242,-10.101,-0.072,-0.063,0.012,0,0,1500,1500,1000,1500
1577693038.767,0.009,-0.004,0.001,-0.000,0.000,-0.000,-0.000,0.002,0.001,379.000,406.000,435.000,397.000,3.790,4.060,4.350,3.970,0.027,-0.024,0.001,-0.002,171.000,0.073,-0.191,-0.508,-10.056,-0.077,0.260,-0.003,0,0,1500,1500,1000,1500
1577693038.792,0.009,-0.004,-0.000,-0.000,0.000,-0.000,-0.000,0.001,-0.001,379.000,406.000,435.000,397.000,3.790,4.060,4.350,3.970,0.021,-0.020,0.001,-0.003,171.000,0.073,-0.233,-0.071,-10.294,-0.111,0.057,-0.010,0,0,1500,1500,1000,1500
1577693038.815,0.010,-0.005,-0.001,-0.003,0.003,-0.000,-0.000,-0.001,0.001,378.000,412.000,428.000,398.000,3.780,4.120,4.280,3.980,0.005,-0.025,0.000,-0.003,171.000,0.074,-0.466,0.408,-10.272,0.351,0.385,0.006,0,0,1500,1500,1000,1500
1577693038.840,0.010,-0.007,-0.001,-0.003,0.003,-0.000,-0.000,-0.003,0.003,378.000,412.000,428.000,398.000,3.780,4.120,4.280,3.980,0.006,-0.016,0.001,-0.003,171.000,0.074,-0.070,0.078,-10.807,-0.130,-0.133,0.006,0,0,1500,1500,1000,1500
1577693038.857,0.010,-0.007,-0.004,-0.000,0.000,-0.000,-0.000,-0.001,0.001,379.000,410.000,435.000,397.000,3.790,4.100,4.350,3.970,0.003,-0.017,0.001,-0.003,171.000,0.074,-0.164,-0.033,-10.761,0.014,0.105,0.012,0,0,1500,1500,1000,1500
