timestamp,x,y,z,v_xopt,v_yopt,v_xopt_sum,v_yopt_sum,v_x,v_y,DD[0],DD[1],DD[2],DD[3],dd1,dd2,dd3,dd4,Pitch,Roll,Yaw,Yaw_pix,heading_pix,Height,acc[0],acc[1],acc[2],omega[0],omega[1],omega[2],Mode,Mode_pos,rcCMD[0],rcCMD[1],rcCMD[2],rcCMD[3]
1577691124.523,0.002,-0.012,-0.005,-0.000,0.000,0.000,-0.000,0.002,-0.042,374.000,418.000,452.000,394.000,3.740,4.180,4.520,3.940,0.020,-0.017,0.001,0.002,194.000,0.071,-0.168,-0.199,-10.111,0.003,0.001,-0.001,0,0,1500,1500,1000,1500
1577691124.546,-0.000,-0.012,-0.005,-0.000,0.000,0.000,-0.000,-0.004,-0.040,374.000,418.000,452.000,394.000,3.740,4.180,4.520,3.940,0.020,-0.017,0.001,0.002,194.000,0.071,-0.170,-0.191,-10.097,0.002,0.000,0.000,0,0,1500,1500,1000,1500
1577691124.568,-0.002,-0.011,-0.005,-0.000,0.000,0.000,-0.000,-0.010,-0.037,374.000,418.000,452.000,394.000,3.740,4.180,4.520,3.940,0.019,-0.016,0.001,0.002,194.000,0.071,-0.163,-0.193,-10.102,-0.001,0.001,0.001,0,0,1500,1500,1000,1500
1577691124.591,-0.002,-0.012,-0.005,-0.000,0.000,0.000,-0.000,-0.008,-0.038,377.000,416.000,450.000,394.000,3.770,4.160,4.500,3.940,0.019,-0.016,0.001,0.002,194.000,0.072,-0.155,-0.185,-10.116,-0.001,0.003,0.003,0,0,1500,1500,1000,1500
1577691124.614,-0.001,-0.013,-0.005,-0.000,0.000,0.000,-0.000,-0.005,-0.039,377.000,416.000,450.000,394.000,3.770,4.160,4.500,3.940,0.019,-0.016,0.001,0.002,194.000,0.072,-0.155,-0.191,-10.116,0.002,-0.003,-0.001,0,0,1500,1500,1000,1500
1577691124.634,-0.002,-0.011,-0.005,-0.003,-0.000,0.000,-0.000,-0.009,-0.031,374.000,416.000,453.000,395.000,3.740,4.160,4.530,3.950,0.019,-0.016,0.001,0.002,194.000,0.072,-0.150,-0.207,-10.118,-0.000,0.002,0.002,0,0,1500,1500,1000,1500
1577691124.656,-0.003,-0.010,-0.005,-0.003,-0.000,0.000,-0.000,-0.012,-0.024,374.000,416.000,453.000,395.000,3.740,4.160,4.530,3.950,0.020,-0.016,0.001,0.002,194.000,0.072,-0.159,-0.208,-10.093,-0.001,0.000,-0.003,0,0,1500,1500,1000,1500
1577691124.680,-0.003,-0.007,-0.005,0.003,0.000,-0.000,-0.000,-0.010,-0.016,375.000,414.000,453.000,396.000,3.750,4.140,4.530,3.960,0.020,-0.016,0.001,0.002,194.000,0.073,-0.156,-0.206,-10.095,0.002,0.000,0.002,0,0,1500,1500,1000,1500
1577691124.700,-0.003,-0.005,-0.005,0.003,0.000,-0.000,-0.000,-0.008,-0.009,375.000,414.000,453.000,396.000,3.750,4.140,4.530,3.960,0.020,-0.016,0.001,0.002,194.000,0.073,-0.183,-0.197,-10.104,0.002,-0.002,-0.002,0,0,1500,1500,1000,1500
1577691124.722,-0.002,-0.002,-0.006,-0.000,0.000,0.000,-0.000,-0.006,-0.002,375.000,414.000,453.000,396.000,3.750,4.140,4.530,3.960,0.019,-0.017,0.001,0.002,194.000,0.070,-0.175,-0.183,-10.109,0.001,-0.002,-0.001,0,0,1500,1500,1000,1500
1577691124.745,-0.002,-0.000,-0.006,-0.000,0.000,0.000,-0.000,-0.005,0.005,375.000,414.000,453.000,396.000,3.750,4.140,4.530,3.960,0.019,-0.017,0.001,0.002,194.000,0.070,-0.174,-0.196,-10.105,0.003,-0.001,-0.001,0,0,1500,1500,1000,1500
1577691124.766,-0.000,-0.002,-0.006,-0.000,0.000,0.000,-0.000,-0.001,0.001,378.000,417.000,450.000,396.000,3.780,4.170,4.500,3.960,0.020,-0.017,0.001,0.002,194.000,0.073,-0.171,-0.204,-10.107,0.002,0.000,0.003,0,0,1500,1500,1000,1500
1577691124.790,0.001,-0.003,-0.007,-0.000,0.000,0.000,-0.000,0.003,-0.002,378.000,417.000,450.000,396.000,3.780,4.170,4.500,3.960,0.020,-0.017,0.001,0.002,194.000,0.073,-0.161,-0.197,-10.108,-0.001,-0.004,-0.002,0,0,1500,1500,1000,1500
1577691124.812,0.002,-0.004,-0.007,-0.000,0.000,0.000,-0.000,0.007,-0.006,378.000,417.000,450.000,396.000,3.780,4.170,4.500,3.960,0.020,-0.017,0.001,0.002,194.000,0.073,-0.162,-0.209,-10.103,-0.001,0.001,0.000,0,0,1500,1500,1000,1500
1577691124.836,0.003,-0.005,-0.007,-0.000,0.000,0.000,-0.000,0.010,-0.009,378.000,417.000,450.000,396.000,3.780,4.170,4.500,3.960,0.020,-0.016,0.001,0.002,194.000,0.072,-0.163,-0.200,-10.090,0.003,0.000,0.002,0,0,1500,1500,1000,1500
1577691124.858,0.004,-0.006,-0.008,-0.000,0.000,0.000,-0.000,0.013,-0.011,378.000,417.000,450.000,396.000,3.780,4.170,4.500,3.960,0.020,-0.016,0.001,0.002,194.000,0.072,-0.153,-0.196,-10.103,0.001,-0.001,-0.002,0,0,1500,1500,1000,1500
1577691124.877,0.004,-0.008,-0.008,-0.000,0.000,0.000,-0.000,0.012,-0.016,378.000,419.000,450.000,395.000,3.780,4.190,4.500,3.950,0.020,-0.016,0.001,0.002,194.000,0.073,-0.162,-0.209,-10.098,0.002,0.000,0.000,0,0,1500,1500,1000,1500
1577691124.900,0.004,-0.010,-0.009,-0.000,0.000,0.000,-0.000,0.011,-0.022,378.000,419.000,450.000,395.000,3.780,4.190,4.500,3.950,0.020,-0.016,0.001,0.002,194.000,0.073,-0.152,-0.189,-10.098,-0.001,0.002,-0.002,0,0,1500,1500,1000,1500
1577691124.921,0.004,-0.009,-0.008,-0.000,0.000,0.000,-0.000,0.010,-0.019,374.000,414.000,450.000,393.000,3.740,4.140,4.500,3.930,0.020,-0.016,0.001,0.002,194.000,0.073,-0.157,-0.195,-10.100,-0.001,-0.001,0.000,0,0,1500,1500,1000,1500
1577691124.943,0.003,-0.009,-0.007,-0.000,0.000,0.000,-0.000,0.008,-0.017,374.000,414.000,450.000,393.000,3.740,4.140,4.500,3.930,0.019,-0.016,0.001,0.002,194.000,0.073,-0.165,-0.185,-10.129,-0.000,0.000,0.000,0,0,1500,1500,1000,1500
1577691124.966,0.005,-0.009,-0.006,-0.000,0.000,0.000,-0.000,0.012,-0.015,376.000,415.000,449.000,396.000,3.760,4.150,4.490,3.960,0.019,-0.016,0.001,0.002,194.000,0.070,-0.158,-0.201,-10.136,0.002,0.001,0.000,0,0,1500,1500,1000,1500
1577691124.987,0.006,-0.008,-0.006,-0.000,0.000,0.000,-0.000,0.016,-0.013,376.000,415.000,449.000,396.000,3.760,4.150,4.490,3.960,0.019,-0.016,0.002,0.002,194.000,0.070,-0.157,-0.198,-10.134,0.003,0.002,-0.003,0,0,1500,1500,1000,1500
1577691125.009,0.007,-0.008,-0.006,-0.000,0.000,0.000,-0.000,0.019,-0.012,376.000,415.000,449.000,396.000,3.760,4.150,4.490,3.960,0.019,-0.016,0.001,0.002,194.000,0.073,-0.162,-0.191,-10.142,0.002,-0.002,0.002,0,0,1500,1500,1000,1500
1577691125.036,0.008,-0.008,-0.006,-0.000,0.000,0.000,-0.000,0.022,-0.010,376.000,415.000,449.000,396.000,3.760,4.150,4.490,3.960,0.019,-0.016,0.002,0.002,194.000,0.073,-0.155,-0.182,-10.133,0.001,-0.002,-0.001,0,0,1500,1500,1000,1500
1577691125.057,0.009,-0.007,-0.006,-0.000,0.000,0.000,-0.000,0.024,-0.009,376.000,415.000,449.000,396.000,3.760,4.150,4.490,3.960,0.019,-0.016,0.002,0.002,194.000,0.073,-0.176,-0.178,-10.130,0.002,-0.001,0.002,0,0,1500,1500,1000,1500
1577691125.081,0.007,-0.008,-0.005,-0.000,0.000,0.000,-0.000,0.014,-0.011,375.000,417.000,452.000,391.000,3.750,4.170,4.520,3.910,0.018,-0.016,0.002,0.002,194.000,0.070,-0.148,-0.173,-10.140,0.002,0.000,0.000,0,0,1500,1500,1000,1500
1577691125.099,0.008,-0.005,-0.006,-0.000,0.000,0.000,-0.000,0.016,-0.000,376.000,414.000,453.000,399.000,3.760,4.140,4.530,3.990,0.018,-0.015,0.002,0.002,194.000,0.070,-0.149,-0.186,-10.130,-0.000,-0.004,-0.001,0,0,1500,1500,1000,1500
1577691125.120,0.009,-0.002,-0.007,-0.000,0.000,0.000,-0.000,0.019,0.009,376.000,414.000,453.000,399.000,3.760,4.140,4.530,3.990,0.019,-0.016,0.002,0.002,194.000,0.073,-0.163,-0.193,-10.119,0.002,0.001,-0.001,0,0,1500,1500,1000,1500
1577691125.143,0.010,0.001,-0.007,-0.000,0.000,0.000,-0.000,0.021,0.018,376.000,414.000,453.000,399.000,3.760,4.140,4.530,3.990,0.019,-0.016,0.002,0.002,194.000,0.073,-0.165,-0.191,-10.092,0.001,0.003,0.001,0,0,1500,1500,1000,1500
1577691125.164,0.009,0.005,-0.007,-0.000,0.000,0.000,-0.000,0.017,0.027,373.000,416.000,453.000,399.000,3.730,4.160,4.530,3.990,0.019,-0.015,0.002,0.002,194.000,0.073,-0.143,-0.189,-10.088,0.004,-0.001,-0.004,0,0,1500,1500,1000,1500
1577691125.189,0.008,0.008,-0.008,-0.000,0.000,0.000,-0.000,0.013,0.036,373.000,416.000,453.000,399.000,3.730,4.160,4.530,3.990,0.019,-0.015,0.002,0.002,194.000,0.073,-0.133,-0.196,-10.105,0.001,0.001,0.001,0,0,1500,1500,1000,1500
1577691125.208,0.009,0.007,-0.007,-0.000,0.000,0.000,-0.000,0.014,0.031,377.000,415.000,450.000,395.000,3.770,4.150,4.500,3.950,0.019,-0.014,0.002,0.002,194.000,0.073,-0.128,-0.196,-10.090,0.002,0.000,0.001,0,0,1500,1500,1000,1500
1577691125.230,0.006,0.008,-0.007,-0.000,0.000,0.000,-0.000,0.005,0.033,372.000,417.000,452.000,395.000,3.720,4.170,4.520,3.950,0.019,-0.014,0.002,0.002,194.000,0.070,-0.126,-0.205,-10.091,0.003,0.002,-0.001,0,0,1500,1500,1000,1500
1577691125.252,0.004,0.009,-0.007,-0.000,0.000,0.000,-0.000,-0.002,0.034,372.000,417.000,452.000,395.000,3.720,4.170,4.520,3.950,0.020,-0.013,0.002,0.002,194.000,0.070,-0.128,-0.210,-10.103,0.002,0.000,-0.001,0,0,1500,1500,1000,1500
1577691125.278,0.001,0.010,-0.007,-0.000,0.000,0.000,-0.000,-0.009,0.035,372.000,417.000,452.000,395.000,3.720,4.170,4.520,3.950,0.020,-0.013,0.002,0.002,194.000,0.070,-0.136,-0.225,-10.120,-0.000,-0.004,-0.002,0,0,1500,1500,1000,1500
1577691125.299,-0.001,0.011,-0.007,-0.000,0.000,0.000,-0.000,-0.016,0.036,372.000,417.000,452.000,395.000,3.720,4.170,4.520,3.950,0.021,-0.013,0.002,0.003,194.000,0.070,-0.126,-0.212,-10.109,-0.002,0.000,-0.001,0,0,1500,1500,1000,1500
1577691125.322,-0.003,0.012,-0.007,-0.000,0.000,0.000,-0.000,-0.022,0.036,372.000,417.000,452.000,395.000,3.720,4.170,4.520,3.950,0.021,-0.013,0.002,0.003,194.000,0.071,-0.124,-0.209,-10.100,0.001,-0.001,-0.001,0,0,1500,1500,1000,1500
1577691125.341,0.002,0.010,-0.006,-0.000,0.000,0.000,-0.000,-0.005,0.029,379.000,413.000,446.000,397.000,3.790,4.130,4.460,3.970,0.021,-0.013,0.002,0.003,194.000,0.073,-0.140,-0.214,-10.101,-0.000,-0.001,-0.001,0,0,1500,1500,1000,1500
1577691125.363,0.004,0.008,-0.005,-0.000,0.000,0.000,-0.000,0.000,0.022,377.000,412.000,449.000,392.000,3.770,4.120,4.490,3.920,0.021,-0.013,0.002,0.003,194.000,0.072,-0.136,-0.220,-10.109,0.003,0.000,0.001,0,0,1500,1500,1000,1500
1577691125.385,0.005,0.006,-0.004,-0.000,0.000,0.000,-0.000,0.005,0.016,377.000,412.000,449.000,392.000,3.770,4.120,4.490,3.920,0.021,-0.014,0.002,0.003,194.000,0.072,-0.152,-0.213,-10.091,0.003,0.002,0.001,0,0,1500,1500,1000,1500
1577691125.407,0.006,0.005,-0.004,-0.000,0.000,0.000,-0.000,0.009,0.010,377.000,412.000,449.000,392.000,3.770,4.120,4.490,3.920,0.021,-0.015,0.002,0.003,194.000,0.071,-0.167,-0.207,-10.097,-0.002,0.001,-0.002,0,0,1500,1500,1000,1500
1577691125.429,0.008,0.003,-0.003,-0.000,0.000,0.000,-0.000,0.013,0.005,377.000,412.000,449.000,392.000,3.770,4.120,4.490,3.920,0.021,-0.015,0.002,0.003,194.000,0.071,-0.170,-0.205,-10.099,0.002,-0.002,-0.002,0,0,1500,1500,1000,1500
1577691125.450,0.006,0.002,-0.004,-0.000,0.000,0.000,-0.000,0.008,0.002,378.000,417.000,454.000,394.000,3.780,4.170,4.540,3.940,0.021,-0.016,0.002,0.003,194.000,0.074,-0.169,-0.209,-10.118,-0.001,0.003,0.004,0,0,1500,1500,1000,1500
1577691125.472,0.008,0.001,-0.003,-0.000,0.000,0.000,-0.000,0.014,-0.001,374.000,415.000,445.000,397.000,3.740,4.150,4.450,3.970,0.021,-0.016,0.002,0.003,194.000,0.074,-0.175,-0.210,-10.128,0.003,-0.001,0.002,0,0,1500,1500,1000,1500
1577691125.495,0.010,0.001,-0.002,-0.000,0.000,0.000,-0.000,0.020,-0.003,374.000,415.000,445.000,397.000,3.740,4.150,4.450,3.970,0.021,-0.016,0.002,0.003,194.000,0.074,-0.166,-0.217,-10.132,0.002,0.001,0.002,0,0,1500,1500,1000,1500
1577691125.521,0.012,-0.000,-0.001,-0.000,0.000,0.000,-0.000,0.025,-0.005,374.000,415.000,445.000,397.000,3.740,4.150,4.450,3.970,0.021,-0.016,0.002,0.003,194.000,0.074,-0.154,-0.217,-10.125,0.002,0.000,0.002,0,0,1500,1500,1000,1500
1577691125.540,0.014,-0.001,-0.001,-0.000,0.000,0.000,-0.000,0.029,-0.006,374.000,415.000,445.000,397.000,3.740,4.150,4.450,3.970,0.021,-0.016,0.002,0.003,194.000,0.074,-0.147,-0.215,-10.103,-0.000,0.001,-0.002,0,0,1500,1500,1000,1500
1577691125.566,0.016,-0.001,-0.001,-0.000,0.000,0.000,-0.000,0.033,-0.008,374.000,415.000,445.000,397.000,3.740,4.150,4.450,3.970,0.021,-0.015,0.002,0.003,194.000,0.068,-0.149,-0.213,-10.114,-0.000,0.000,0.003,0,0,1500,1500,1000,1500
1577691125.585,0.012,0.001,-0.001,-0.000,0.000,0.000,-0.000,0.019,-0.002,372.000,416.000,454.000,394.000,3.720,4.160,4.540,3.940,0.021,-0.015,0.002,0.003,194.000,0.071,-0.150,-0.208,-10.121,0.001,-0.003,0.000,0,0,1500,1500,1000,1500
1577691125.606,0.011,-0.001,-0.002,-0.000,0.000,0.000,-0.000,0.016,-0.007,378.000,419.000,451.000,396.000,3.780,4.190,4.510,3.960,0.021,-0.015,0.002,0.003,194.000,0.069,-0.146,-0.202,-10.096,0.002,0.000,0.000,0,0,1500,1500,1000,1500
1577691125.631,0.010,-0.003,-0.004,-0.000,0.000,0.000,-0.000,0.012,-0.011,378.000,419.000,451.000,396.000,3.780,4.190,4.510,3.960,0.020,-0.015,0.002,0.003,194.000,0.069,-0.156,-0.198,-10.072,-0.001,-0.001,0.000,0,0,1500,1500,1000,1500
1577691125.651,0.009,-0.003,-0.004,-0.000,0.000,0.000,-0.000,0.006,-0.010,376.000,416.000,453.000,394.000,3.760,4.160,4.530,3.940,0.020,-0.015,0.002,0.003,194.000,0.074,-0.147,-0.201,-10.094,0.001,0.000,-0.001,0,0,1500,1500,1000,1500
1577691125.674,0.007,-0.002,-0.004,-0.000,0.000,0.000,-0.000,0.001,-0.009,376.000,416.000,453.000,394.000,3.760,4.160,4.530,3.940,0.020,-0.015,0.002,0.003,194.000,0.074,-0.142,-0.191,-10.100,-0.000,0.001,0.001,0,0,1500,1500,1000,1500
1577691125.694,0.006,-0.002,-0.004,-0.000,0.000,0.000,-0.000,-0.004,-0.008,376.000,416.000,453.000,394.000,3.760,4.160,4.530,3.940,0.020,-0.015,0.002,0.003,194.000,0.070,-0.146,-0.194,-10.116,0.001,-0.002,0.000,0,0,1500,1500,1000,1500
1577691125.716,0.005,-0.001,-0.005,-0.000,0.000,0.000,-0.000,-0.007,-0.005,377.000,416.000,454.000,396.000,3.770,4.160,4.540,3.960,0.020,-0.015,0.002,0.003,194.000,0.077,-0.152,-0.195,-10.117,0.001,-0.001,0.003,0,0,1500,1500,1000,1500
1577691125.741,0.004,-0.000,-0.005,-0.000,0.000,0.000,-0.000,-0.009,-0.002,377.000,416.000,454.000,396.000,3.770,4.160,4.540,3.960,0.019,-0.015,0.002,0.003,194.000,0.077,-0.154,-0.186,-10.097,-0.002,-0.001,-0.001,0,0,1500,1500,1000,1500
1577691125.765,0.003,0.000,-0.006,-0.000,0.000,0.000,-0.000,-0.011,0.001,377.000,416.000,454.000,396.000,3.770,4.160,4.540,3.960,0.019,-0.015,0.002,0.003,194.000,0.077,-0.152,-0.187,-10.083,-0.000,0.000,-0.001,0,0,1500,1500,1000,1500
1577691125.785,0.003,0.001,-0.006,-0.000,0.000,0.000,-0.000,-0.012,0.003,377.000,416.000,454.000,396.000,3.770,4.160,4.540,3.960,0.019,-0.015,0.002,0.003,194.000,0.077,-0.161,-0.184,-10.080,0.002,-0.001,0.001,0,0,1500,1500,1000,1500
1577691125.806,0.001,0.002,-0.006,-0.000,0.000,0.000,-0.000,-0.017,0.005,373.000,418.000,451.000,396.000,3.730,4.180,4.510,3.960,0.019,-0.015,0.003,0.003,194.000,0.070,-0.160,-0.181,-10.069,0.002,-0.002,0.000,0,0,1500,1500,1000,1500
1577691125.828,-0.001,0.002,-0.006,-0.000,0.000,0.000,-0.000,-0.021,0.006,373.000,418.000,451.000,396.000,3.730,4.180,4.510,3.960,0.018,-0.016,0.003,0.003,194.000,0.070,-0.161,-0.178,-10.092,-0.000,-0.001,-0.002,0,0,1500,1500,1000,1500
1577691125.851,0.001,-0.000,-0.007,-0.000,0.000,0.000,-0.000,-0.016,-0.002,381.000,416.000,451.000,394.000,3.810,4.160,4.510,3.940,0.019,-0.016,0.003,0.003,194.000,0.071,-0.162,-0.193,-10.104,-0.001,0.000,-0.001,0,0,1500,1500,1000,1500
1577691125.872,0.002,-0.003,-0.008,-0.000,0.000,0.000,-0.000,-0.011,-0.010,381.000,416.000,451.000,394.000,3.810,4.160,4.510,3.940,0.019,-0.016,0.003,0.003,194.000,0.071,-0.165,-0.195,-10.110,-0.000,-0.002,0.001,0,0,1500,1500,1000,1500
1577691125.894,0.005,-0.005,-0.008,-0.000,0.000,0.000,-0.000,-0.002,-0.014,378.000,416.000,447.000,397.000,3.780,4.160,4.470,3.970,0.019,-0.016,0.003,0.003,194.000,0.069,-0.164,-0.203,-10.121,0.004,0.000,-0.004,0,0,1500,1500,1000,1500
1577691125.916,0.007,-0.006,-0.008,-0.000,0.000,0.000,-0.000,0.006,-0.018,378.000,416.000,447.000,397.000,3.780,4.160,4.470,3.970,0.019,-0.016,0.002,0.003,194.000,0.071,-0.165,-0.205,-10.108,0.003,-0.001,0.000,0,0,1500,1500,1000,1500
1577691125.937,0.009,-0.007,-0.008,-0.000,0.000,0.000,-0.000,0.013,-0.021,378.000,416.000,447.000,397.000,3.780,4.160,4.470,3.970,0.020,-0.016,0.003,0.003,194.000,0.071,-0.163,-0.204,-10.102,-0.000,-0.002,-0.001,0,0,1500,1500,1000,1500
1577691125.960,0.011,-0.010,-0.009,-0.000,0.000,0.000,-0.000,0.017,-0.029,381.000,416.000,449.000,394.000,3.810,4.160,4.490,3.940,0.020,-0.016,0.003,0.003,194.000,0.072,-0.173,-0.197,-10.102,-0.000,-0.002,-0.001,0,0,1500,1500,1000,1500
1577691125.985,0.012,-0.013,-0.009,-0.000,0.000,0.000,-0.000,0.021,-0.036,381.000,416.000,449.000,394.000,3.810,4.160,4.490,3.940,0.019,-0.017,0.003,0.003,194.000,0.072,-0.178,-0.190,-10.087,0.001,0.001,-0.003,0,0,1500,1500,1000,1500
1577691126.008,0.014,-0.016,-0.009,-0.000,0.000,0.000,-0.000,0.024,-0.042,381.000,416.000,449.000,394.000,3.810,4.160,4.490,3.940,0.019,-0.017,0.002,0.003,194.000,0.072,-0.181,-0.185,-10.085,-0.001,0.000,0.001,0,0,1500,1500,1000,1500
1577691126.031,0.015,-0.018,-0.009,-0.000,0.000,0.000,-0.000,0.027,-0.047,381.000,416.000,449.000,394.000,3.810,4.160,4.490,3.940,0.019,-0.017,0.003,0.003,194.000,0.072,-0.176,-0.193,-10.119,0.001,0.000,0.001,0,0,1500,1500,1000,1500
1577691126.053,0.016,-0.021,-0.010,-0.000,0.000,0.000,-0.000,0.029,-0.052,381.000,416.000,449.000,394.000,3.810,4.160,4.490,3.940,0.019,-0.017,0.003,0.003,194.000,0.070,-0.176,-0.176,-10.113,0.001,-0.001,-0.002,0,0,1500,1500,1000,1500
1577691126.074,0.013,-0.017,-0.010,-0.000,0.000,0.000,-0.000,0.017,-0.039,373.000,416.000,455.000,395.000,3.730,4.160,4.550,3.950,0.018,-0.017,0.003,0.003,194.000,0.072,-0.171,-0.177,-10.110,-0.000,0.002,0.000,0,0,1500,1500,1000,1500
1577691126.094,0.009,-0.014,-0.010,-0.000,0.000,0.000,-0.000,0.005,-0.027,373.000,416.000,455.000,395.000,3.730,4.160,4.550,3.950,0.018,-0.017,0.003,0.003,194.000,0.069,-0.155,-0.169,-10.114,0.002,0.002,-0.003,0,0,1500,1500,1000,1500
1577691126.117,0.006,-0.011,-0.010,-0.000,0.000,0.000,-0.000,-0.005,-0.016,373.000,416.000,455.000,395.000,3.730,4.160,4.550,3.950,0.018,-0.016,0.003,0.003,194.000,0.069,-0.143,-0.168,-10.120,-0.002,-0.003,-0.003,0,0,1500,1500,1000,1500
1577691126.138,0.002,-0.010,-0.010,-0.000,0.000,0.000,-0.000,-0.019,-0.013,376.000,417.000,457.000,391.000,3.760,4.170,4.570,3.910,0.018,-0.016,0.003,0.003,194.000,0.072,-0.150,-0.189,-10.118,-0.002,-0.001,0.000,0,0,1500,1500,1000,1500
1577691126.159,0.001,-0.009,-0.010,-0.000,0.000,0.000,-0.000,-0.019,-0.011,378.000,414.000,454.000,393.000,3.780,4.140,4.540,3.930,0.018,-0.016,0.003,0.003,194.000,0.072,-0.159,-0.195,-10.128,-0.000,0.000,0.000,0,0,1500,1500,1000,1500
1577691126.182,0.001,-0.009,-0.010,-0.000,0.000,0.000,-0.000,-0.020,-0.008,378.000,414.000,454.000,393.000,3.780,4.140,4.540,3.930,0.019,-0.015,0.003,0.003,194.000,0.072,-0.145,-0.199,-10.133,-0.000,0.001,0.002,0,0,1500,1500,1000,1500
1577691126.204,0.000,-0.008,-0.010,-0.000,0.000,0.000,-0.000,-0.020,-0.006,378.000,414.000,454.000,393.000,3.780,4.140,4.540,3.930,0.019,-0.015,0.003,0.003,194.000,0.070,-0.150,-0.206,-10.097,-0.000,0.001,-0.001,0,0,1500,1500,1000,1500
1577691126.230,0.000,-0.008,-0.010,-0.000,0.000,0.000,-0.000,-0.020,-0.004,378.000,414.000,454.000,393.000,3.780,4.140,4.540,3.930,0.019,-0.015,0.003,0.003,194.000,0.070,-0.166,-0.208,-10.112,0.001,-0.003,0.000,0,0,1500,1500,1000,1500
1577691126.255,-0.000,-0.007,-0.010,-0.000,0.000,0.000,-0.000,-0.020,-0.002,378.000,414.000,454.000,393.000,3.780,4.140,4.540,3.930,0.020,-0.016,0.003,0.003,194.000,0.070,-0.169,-0.199,-10.095,0.001,-0.003,-0.002,0,0,1500,1500,1000,1500
1577691126.272,-0.001,-0.006,-0.010,-0.000,0.000,0.000,-0.000,-0.020,-0.001,378.000,414.000,454.000,393.000,3.780,4.140,4.540,3.930,0.020,-0.016,0.003,0.003,194.000,0.070,-0.183,-0.203,-10.089,0.002,0.000,-0.001,0,0,1500,1500,1000,1500
1577691126.296,-0.001,-0.006,-0.010,-0.000,0.000,0.000,-0.000,-0.020,0.001,370.000,417.000,450.000,394.000,3.780,4.140,4.540,3.930,0.020,-0.017,0.003,0.003,194.000,0.072,-0.173,-0.218,-10.086,0.001,0.002,-0.002,0,0,1500,1500,1000,1500
1577691126.315,-0.002,-0.008,-0.010,-0.000,0.000,0.000,-0.000,-0.023,-0.004,378.000,419.000,452.000,394.000,3.780,4.190,4.520,3.940,0.020,-0.017,0.003,0.003,194.000,0.074,-0.164,-0.195,-10.088,0.002,0.000,-0.003,0,0,1500,1500,1000,1500
1577691126.336,-0.002,-0.008,-0.011,-0.000,0.000,0.000,-0.000,-0.023,-0.006,378.000,417.000,452.000,394.000,3.780,4.170,4.520,3.940,0.020,-0.017,0.003,0.003,194.000,0.072,-0.175,-0.195,-10.080,-0.002,0.000,-0.002,0,0,1500,1500,1000,1500
1577691126.359,-0.003,-0.009,-0.011,-0.000,0.000,0.000,-0.000,-0.022,-0.008,378.000,417.000,452.000,394.000,3.780,4.170,4.520,3.940,0.020,-0.017,0.003,0.003,194.000,0.072,-0.179,-0.195,-10.070,-0.000,0.000,0.000,0,0,1500,1500,1000,1500
1577691126.380,-0.003,-0.010,-0.011,-0.000,0.000,0.000,-0.000,-0.022,-0.010,378.000,417.000,452.000,394.000,3.780,4.170,4.520,3.940,0.019,-0.017,0.003,0.003,194.000,0.072,-0.175,-0.184,-10.070,-0.000,0.000,0.000,0,0,1500,1500,1000,1500
1577691126.403,-0.001,-0.010,-0.011,-0.000,0.000,0.000,-0.000,-0.016,-0.010,378.000,416.000,450.000,396.000,3.780,4.160,4.500,3.960,0.019,-0.017,0.003,0.003,194.000,0.070,-0.184,-0.185,-10.098,0.004,0.001,-0.001,0,0,1500,1500,1000,1500
1577691126.424,0.000,-0.010,-0.011,-0.000,0.000,0.000,-0.000,-0.010,-0.010,378.000,416.000,450.000,396.000,3.780,4.160,4.500,3.960,0.019,-0.017,0.003,0.003,194.000,0.070,-0.179,-0.183,-10.116,0.002,0.000,-0.003,0,0,1500,1500,1000,1500
1577691126.446,0.001,-0.012,-0.010,-0.000,0.000,0.000,-0.000,-0.006,-0.014,376.000,416.000,447.000,394.000,3.760,4.160,4.470,3.940,0.019,-0.017,0.003,0.003,194.000,0.073,-0.177,-0.179,-10.136,0.001,0.001,-0.002,0,0,1500,1500,1000,1500
1577691126.475,0.002,-0.013,-0.009,-0.000,0.000,0.000,-0.000,-0.003,-0.017,376.000,416.000,447.000,394.000,3.760,4.160,4.470,3.940,0.019,-0.017,0.003,0.003,194.000,0.073,-0.170,-0.188,-10.119,0.002,0.000,-0.003,0,0,1500,1500,1000,1500
1577691126.503,0.003,-0.014,-0.008,-0.000,0.000,0.000,-0.000,0.001,-0.020,376.000,416.000,447.000,394.000,3.760,4.160,4.470,3.940,0.019,-0.017,0.003,0.003,194.000,0.073,-0.175,-0.193,-10.103,0.002,-0.003,-0.001,0,0,1500,1500,1000,1500
1577691126.519,0.004,-0.015,-0.007,-0.000,0.000,0.000,-0.000,0.004,-0.023,376.000,416.000,447.000,394.000,3.760,4.160,4.470,3.940,0.019,-0.017,0.003,0.003,194.000,0.073,-0.179,-0.185,-10.099,0.002,0.000,-0.001,0,0,1500,1500,1000,1500
1577691126.539,0.002,-0.016,-0.006,-0.000,0.000,0.000,-0.000,-0.003,-0.023,371.000,419.000,447.000,393.000,3.710,4.190,4.470,3.930,0.019,-0.018,0.003,0.003,194.000,0.074,-0.186,-0.190,-10.090,-0.001,0.004,-0.001,0,0,1500,1500,1000,1500
1577691126.562,0.000,-0.018,-0.005,-0.000,0.000,0.000,-0.000,-0.009,-0.027,376.000,419.000,450.000,392.000,3.760,4.190,4.500,3.920,0.019,-0.018,0.003,0.003,194.000,0.075,-0.190,-0.185,-10.090,-0.000,0.001,-0.002,0,0,1500,1500,1000,1500
1577691126.583,-0.001,-0.020,-0.005,-0.000,0.000,0.000,-0.000,-0.014,-0.031,376.000,419.000,450.000,392.000,3.760,4.190,4.500,3.920,0.019,-0.018,0.003,0.003,194.000,0.075,-0.176,-0.189,-10.090,0.004,-0.003,0.002,0,0,1500,1500,1000,1500
1577691126.605,-0.003,-0.021,-0.005,-0.000,0.000,0.000,-0.000,-0.019,-0.034,376.000,419.000,450.000,392.000,3.760,4.190,4.500,3.920,0.019,-0.017,0.003,0.003,194.000,0.073,-0.165,-0.184,-10.093,0.002,0.000,-0.002,0,0,1500,1500,1000,1500
1577691126.627,-0.005,-0.023,-0.005,-0.000,0.000,0.000,-0.000,-0.022,-0.037,376.000,419.000,450.000,392.000,3.760,4.190,4.500,3.920,0.019,-0.017,0.003,0.003,194.000,0.073,-0.161,-0.190,-10.074,-0.000,0.000,-0.002,0,0,1500,1500,1000,1500
1577691126.649,-0.006,-0.019,-0.004,-0.000,0.000,0.000,-0.000,-0.025,-0.025,374.000,416.000,454.000,396.000,3.740,4.160,4.540,3.960,0.019,-0.016,0.003,0.003,194.000,0.075,-0.152,-0.187,-10.074,0.004,-0.002,-0.001,0,0,1500,1500,1000,1500
1577691126.675,-0.007,-0.016,-0.004,-0.000,0.000,0.000,-0.000,-0.027,-0.013,374.000,416.000,454.000,396.000,3.740,4.160,4.540,3.960,0.019,-0.016,0.003,0.003,194.000,0.075,-0.141,-0.196,-10.091,-0.001,0.000,-0.002,0,0,1500,1500,1000,1500
1577691126.695,-0.005,-0.016,-0.004,-0.000,0.000,0.000,-0.000,-0.019,-0.015,377.000,415.000,448.000,394.000,3.770,4.150,4.480,3.940,0.019,-0.016,0.003,0.003,194.000,0.071,-0.155,-0.186,-10.086,-0.000,-0.001,0.000,0,0,1500,1500,1000,1500
1577691126.725,-0.003,-0.017,-0.004,-0.000,0.000,0.000,-0.000,-0.012,-0.016,377.000,415.000,448.000,394.000,3.770,4.150,4.480,3.940,0.019,-0.016,0.003,0.003,194.000,0.071,-0.156,-0.194,-10.099,-0.000,0.001,-0.001,0,0,1500,1500,1000,1500
1577691126.748,-0.002,-0.013,-0.004,-0.000,0.000,0.000,-0.000,-0.007,-0.004,375.000,414.000,452.000,398.000,3.750,4.140,4.520,3.980,0.019,-0.016,0.003,0.003,194.000,0.070,-0.160,-0.199,-10.096,0.002,-0.002,0.001,0,0,1500,1500,1000,1500
1577691126.763,-0.000,-0.010,-0.004,-0.000,0.000,0.000,-0.000,-0.002,0.007,375.000,414.000,452.000,398.000,3.750,4.140,4.520,3.980,0.019,-0.016,0.003,0.003,194.000,0.070,-0.178,-0.193,-10.112,-0.002,0.001,0.003,0,0,1500,1500,1000,1500
1577691126.784,0.001,-0.006,-0.004,-0.000,0.000,0.000,-0.000,0.002,0.017,375.000,414.000,452.000,398.000,3.750,4.140,4.520,3.980,0.020,-0.017,0.003,0.003,194.000,0.075,-0.173,-0.208,-10.075,0.001,0.000,-0.002,0,0,1500,1500,1000,1500
1577691126.806,0.002,-0.007,-0.004,-0.000,0.000,0.000,-0.000,0.004,0.013,379.000,416.000,451.000,394.000,3.790,4.160,4.510,3.940,0.020,-0.017,0.003,0.003,194.000,0.075,-0.190,-0.208,-10.096,-0.001,0.000,0.001,0,0,1500,1500,1000,1500
1577691126.827,0.003,-0.008,-0.005,-0.000,0.000,0.000,-0.000,0.007,0.009,379.000,416.000,451.000,394.000,3.790,4.160,4.510,3.940,0.020,-0.018,0.003,0.003,194.000,0.075,-0.189,-0.197,-10.115,-0.000,0.001,-0.001,0,0,1500,1500,1000,1500
1577691126.849,0.001,-0.008,-0.005,-0.000,0.000,0.000,-0.000,0.002,0.008,375.000,418.000,451.000,394.000,3.750,4.180,4.510,3.940,0.020,-0.018,0.003,0.003,194.000,0.072,-0.194,-0.191,-10.111,0.002,-0.001,-0.002,0,0,1500,1500,1000,1500
1577691126.872,-0.000,-0.008,-0.005,-0.000,0.000,0.000,-0.000,-0.003,0.008,375.000,418.000,451.000,394.000,3.750,4.180,4.510,3.940,0.019,-0.018,0.003,0.003,194.000,0.072,-0.188,-0.191,-10.116,0.001,0.003,0.000,0,0,1500,1500,1000,1500
1577691126.893,-0.001,-0.009,-0.005,-0.000,0.000,0.000,-0.000,-0.007,0.007,375.000,418.000,451.000,394.000,3.750,4.180,4.510,3.940,0.019,-0.018,0.003,0.003,194.000,0.070,-0.172,-0.194,-10.116,0.002,-0.001,-0.001,0,0,1500,1500,1000,1500
1577691126.916,-0.002,-0.009,-0.005,-0.000,0.000,0.000,-0.000,-0.010,0.006,375.000,418.000,451.000,394.000,3.750,4.180,4.510,3.940,0.020,-0.018,0.003,0.003,194.000,0.070,-0.171,-0.203,-10.122,0.002,-0.001,0.001,0,0,1500,1500,1000,1500
1577691126.944,-0.000,-0.008,-0.005,-0.000,0.000,0.000,-0.000,-0.002,0.008,378.000,413.000,450.000,395.000,3.780,4.130,4.500,3.950,0.020,-0.017,0.003,0.003,194.000,0.073,-0.168,-0.206,-10.106,-0.000,0.000,0.000,0,0,1500,1500,1000,1500
1577691126.970,0.002,-0.008,-0.005,-0.000,0.000,0.000,-0.000,0.006,0.008,378.000,413.000,450.000,395.000,3.780,4.130,4.500,3.950,0.020,-0.017,0.003,0.003,194.000,0.073,-0.147,-0.190,-10.099,-0.001,0.001,0.001,0,0,1500,1500,1000,1500
1577691126.989,0.004,-0.007,-0.005,-0.000,0.000,0.000,-0.000,0.013,0.009,378.000,413.000,450.000,395.000,3.780,4.130,4.500,3.950,0.019,-0.016,0.003,0.003,194.000,0.073,-0.148,-0.186,-10.090,0.003,0.001,0.000,0,0,1500,1500,1000,1500
1577691127.006,0.004,-0.005,-0.004,-0.000,0.000,0.000,-0.000,0.010,0.017,374.000,414.000,453.000,395.000,3.740,4.140,4.530,3.950,0.019,-0.016,0.003,0.003,194.000,0.071,-0.138,-0.178,-10.111,-0.001,0.002,-0.001,0,0,1500,1500,1000,1500
1577691127.026,0.003,-0.002,-0.004,-0.000,0.000,0.000,-0.000,0.007,0.024,374.000,414.000,453.000,395.000,3.740,4.140,4.530,3.950,0.019,-0.015,0.003,0.003,194.000,0.073,-0.139,-0.183,-10.094,0.003,-0.002,0.001,0,0,1500,1500,1000,1500
1577691127.049,0.003,0.001,-0.005,-0.000,0.000,0.000,-0.000,0.008,0.032,375.000,416.000,453.000,399.000,3.750,4.160,4.530,3.990,0.019,-0.015,0.003,0.003,194.000,0.074,-0.141,-0.193,-10.076,0.001,-0.001,0.000,0,0,1500,1500,1000,1500
1577691127.071,0.004,0.004,-0.005,-0.000,0.000,0.000,-0.000,0.008,0.039,375.000,416.000,453.000,399.000,3.750,4.160,4.530,3.990,0.019,-0.015,0.003,0.003,194.000,0.074,-0.154,-0.179,-10.104,0.002,0.004,0.000,0,0,1500,1500,1000,1500
1577691127.093,0.004,0.007,-0.006,-0.000,0.000,0.000,-0.000,0.009,0.045,375.000,416.000,453.000,399.000,3.750,4.160,4.530,3.990,0.018,-0.015,0.003,0.003,194.000,0.074,-0.161,-0.176,-10.120,0.001,-0.001,-0.003,0,0,1500,1500,1000,1500
1577691127.115,0.004,0.009,-0.006,-0.000,0.000,0.000,-0.000,0.009,0.050,375.000,416.000,453.000,399.000,3.750,4.160,4.530,3.990,0.018,-0.015,0.003,0.003,194.000,0.074,-0.163,-0.164,-10.117,0.001,0.003,0.001,0,0,1500,1500,1000,1500
1577691127.136,0.004,0.012,-0.007,-0.000,0.000,0.000,-0.000,0.009,0.055,375.000,416.000,453.000,399.000,3.750,4.160,4.530,3.990,0.017,-0.016,0.003,0.003,194.000,0.075,-0.163,-0.159,-10.129,0.002,-0.001,0.001,0,0,1500,1500,1000,1500
1577691127.159,0.004,0.014,-0.007,-0.000,0.000,0.000,-0.000,0.009,0.059,375.000,416.000,453.000,399.000,3.750,4.160,4.530,3.990,0.017,-0.016,0.003,0.003,194.000,0.075,-0.176,-0.155,-10.149,-0.001,0.001,-0.001,0,0,1500,1500,1000,1500
1577691127.188,0.005,0.016,-0.007,-0.000,0.000,0.000,-0.000,0.009,0.062,375.000,416.000,453.000,399.000,3.750,4.160,4.530,3.990,0.017,-0.016,0.003,0.003,194.000,0.074,-0.181,-0.163,-10.134,-0.000,-0.001,-0.001,0,0,1500,1500,1000,1500
1577691127.212,0.005,0.018,-0.008,-0.000,0.000,0.000,-0.000,0.009,0.065,375.000,416.000,453.000,399.000,3.750,4.160,4.530,3.990,0.017,-0.017,0.003,0.004,194.000,0.074,-0.185,-0.174,-10.152,0.001,0.000,0.001,0,0,1500,1500,1000,1500
1577691127.233,0.005,0.020,-0.008,-0.000,0.000,0.000,-0.000,0.009,0.068,375.000,416.000,453.000,399.000,3.750,4.160,4.530,3.990,0.017,-0.017,0.003,0.004,194.000,0.074,-0.177,-0.177,-10.125,0.001,-0.003,0.001,0,0,1500,1500,1000,1500
1577691127.250,0.005,0.022,-0.009,-0.000,0.000,0.000,-0.000,0.009,0.069,375.000,416.000,453.000,399.000,3.750,4.160,4.530,3.990,0.017,-0.017,0.003,0.004,194.000,0.073,-0.176,-0.186,-10.120,-0.000,0.000,-0.001,0,0,1500,1500,1000,1500
1577691127.271,0.005,0.023,-0.009,-0.000,0.000,0.000,-0.000,0.008,0.071,375.000,416.000,453.000,399.000,3.750,4.160,4.530,3.990,0.018,-0.018,0.003,0.004,194.000,0.073,-0.187,-0.193,-10.114,0.001,-0.001,-0.001,0,0,1500,1500,1000,1500
1577691127.293,0.007,0.022,-0.009,-0.000,0.000,0.000,-0.000,0.014,0.063,377.000,414.000,449.000,396.000,3.770,4.140,4.490,3.960,0.018,-0.018,0.003,0.004,194.000,0.071,-0.182,-0.183,-10.117,-0.001,-0.001,0.001,0,0,1500,1500,1000,1500
1577691127.315,0.009,0.020,-0.009,-0.000,0.000,0.000,-0.000,0.019,0.056,377.000,414.000,449.000,396.000,3.770,4.140,4.490,3.960,0.018,-0.017,0.003,0.004,194.000,0.071,-0.167,-0.185,-10.119,0.001,0.001,0.001,0,0,1500,1500,1000,1500
1577691127.336,0.011,0.018,-0.008,-0.000,0.000,0.000,-0.000,0.026,0.044,377.000,414.000,446.000,395.000,3.770,4.140,4.460,3.950,0.018,-0.017,0.003,0.004,194.000,0.072,-0.168,-0.192,-10.102,-0.000,0.000,0.001,0,0,1500,1500,1000,1500
1577691127.359,0.014,0.015,-0.007,-0.000,0.000,0.000,-0.000,0.032,0.034,377.000,414.000,446.000,395.000,3.770,4.140,4.460,3.950,0.018,-0.017,0.003,0.004,194.000,0.072,-0.167,-0.191,-10.091,-0.000,0.001,0.000,0,0,1500,1500,1000,1500
1577691127.380,0.012,0.012,-0.007,-0.000,0.000,0.000,-0.000,0.025,0.026,376.000,418.000,451.000,394.000,3.760,4.180,4.510,3.940,0.018,-0.017,0.003,0.004,194.000,0.071,-0.164,-0.189,-10.102,-0.004,-0.001,0.001,0,0,1500,1500,1000,1500
1577691127.404,0.010,0.010,-0.007,-0.000,0.000,0.000,-0.000,0.018,0.018,376.000,418.000,451.000,394.000,3.760,4.180,4.510,3.940,0.018,-0.016,0.003,0.004,194.000,0.071,-0.151,-0.173,-10.115,0.003,0.000,0.000,0,0,1500,1500,1000,1500
1577691127.426,0.009,0.008,-0.007,-0.000,0.000,0.000,-0.000,0.012,0.011,376.000,418.000,451.000,394.000,3.760,4.180,4.510,3.940,0.018,-0.016,0.003,0.004,194.000,0.073,-0.163,-0.180,-10.111,-0.000,0.001,-0.002,0,0,1500,1500,1000,1500
1577691127.454,0.007,0.006,-0.007,-0.000,0.000,0.000,-0.000,0.007,0.005,376.000,418.000,451.000,394.000,3.760,4.180,4.510,3.940,0.018,-0.016,0.003,0.004,194.000,0.073,-0.157,-0.183,-10.111,0.001,-0.001,-0.002,0,0,1500,1500,1000,1500
1577691127.477,0.006,0.004,-0.007,-0.000,0.000,0.000,-0.000,0.002,-0.001,376.000,418.000,451.000,394.000,3.760,4.180,4.510,3.940,0.018,-0.016,0.003,0.004,194.000,0.073,-0.155,-0.178,-10.105,-0.000,0.003,0.001,0,0,1500,1500,1000,1500
1577691127.493,0.004,0.004,-0.008,-0.000,0.000,0.000,-0.000,-0.003,-0.002,376.000,417.000,453.000,395.000,3.760,4.170,4.530,3.950,0.018,-0.016,0.003,0.004,194.000,0.073,-0.159,-0.186,-10.102,-0.002,0.002,-0.004,0,0,1500,1500,1000,1500
1577691127.514,0.003,0.004,-0.008,-0.000,0.000,0.000,-0.000,-0.007,-0.003,376.000,417.000,453.000,395.000,3.760,4.170,4.530,3.950,0.018,-0.016,0.003,0.004,194.000,0.074,-0.161,-0.190,-10.097,0.001,0.001,0.002,0,0,1500,1500,1000,1500
1577691127.537,0.002,0.004,-0.008,-0.000,0.003,0.000,-0.000,-0.011,-0.003,376.000,417.000,453.000,395.000,3.760,4.170,4.530,3.950,0.019,-0.016,0.003,0.004,194.000,0.075,-0.156,-0.207,-10.086,0.003,-0.001,-0.002,0,0,1500,1500,1000,1500
1577691127.558,0.000,0.003,-0.008,-0.000,0.003,0.000,-0.000,-0.014,-0.004,376.000,417.000,453.000,395.000,3.760,4.170,4.530,3.950,0.019,-0.015,0.003,0.004,194.000,0.075,-0.143,-0.211,-10.085,-0.000,-0.001,-0.002,0,0,1500,1500,1000,1500
1577691127.580,-0.000,0.003,-0.007,-0.000,0.000,-0.000,0.000,-0.016,-0.003,374.000,416.000,451.000,395.000,3.740,4.160,4.510,3.950,0.020,-0.015,0.003,0.004,194.000,0.073,-0.142,-0.206,-10.087,0.003,0.000,-0.002,0,0,1500,1500,1000,1500
1577691127.603,-0.001,0.003,-0.007,-0.000,0.000,-0.000,0.000,-0.017,-0.003,374.000,416.000,451.000,395.000,3.740,4.160,4.510,3.950,0.019,-0.015,0.003,0.004,194.000,0.073,-0.147,-0.186,-10.099,-0.000,0.001,0.000,0,0,1500,1500,1000,1500
1577691127.624,-0.002,0.004,-0.007,-0.000,0.000,-0.000,0.000,-0.018,-0.003,374.000,416.000,451.000,395.000,3.740,4.160,4.510,3.950,0.019,-0.015,0.003,0.004,194.000,0.069,-0.166,-0.181,-10.079,0.001,-0.001,0.001,0,0,1500,1500,1000,1500
1577691127.647,-0.002,0.004,-0.007,-0.000,0.000,-0.000,0.000,-0.018,-0.002,374.000,416.000,451.000,395.000,3.740,4.160,4.510,3.950,0.019,-0.016,0.003,0.004,194.000,0.069,-0.178,-0.195,-10.059,-0.000,-0.001,-0.001,0,0,1500,1500,1000,1500
1577691127.676,-0.003,0.004,-0.007,-0.000,0.000,-0.000,0.000,-0.019,-0.002,374.000,416.000,451.000,395.000,3.740,4.160,4.510,3.950,0.019,-0.016,0.003,0.004,194.000,0.071,-0.178,-0.188,-10.056,0.002,0.001,0.001,0,0,1500,1500,1000,1500
1577691127.701,-0.003,0.004,-0.006,-0.000,0.000,-0.000,0.000,-0.020,-0.001,374.000,416.000,451.000,395.000,3.740,4.160,4.510,3.950,0.019,-0.017,0.003,0.004,194.000,0.071,-0.187,-0.202,-10.056,-0.000,0.000,-0.003,0,0,1500,1500,1000,1500
1577691127.720,-0.004,0.004,-0.006,-0.000,0.000,-0.000,0.000,-0.020,-0.001,374.000,416.000,451.000,395.000,3.740,4.160,4.510,3.950,0.019,-0.017,0.003,0.004,194.000,0.071,-0.186,-0.198,-10.060,-0.000,-0.001,-0.001,0,0,1500,1500,1000,1500
1577691127.737,-0.004,0.004,-0.006,-0.000,0.000,-0.000,0.000,-0.021,-0.001,374.000,416.000,451.000,395.000,3.740,4.160,4.510,3.950,0.019,-0.017,0.003,0.004,194.000,0.071,-0.172,-0.187,-10.072,-0.000,0.000,-0.001,0,0,1500,1500,1000,1500
1577691127.760,-0.004,0.004,-0.006,-0.000,0.000,-0.000,0.000,-0.021,-0.001,374.000,416.000,451.000,395.000,3.740,4.160,4.510,3.950,0.019,-0.017,0.003,0.004,194.000,0.071,-0.158,-0.179,-10.059,-0.000,0.004,-0.003,0,0,1500,1500,1000,1500
1577691127.781,-0.005,0.003,-0.004,-0.000,0.000,-0.000,0.000,-0.021,-0.005,373.000,413.000,449.000,390.000,3.730,4.130,4.490,3.900,0.019,-0.016,0.003,0.004,194.000,0.070,-0.149,-0.179,-10.076,-0.002,0.000,0.000,0,0,1500,1500,1000,1500
1577691127.804,-0.005,0.001,-0.003,-0.000,0.000,-0.000,0.000,-0.021,-0.008,373.000,413.000,449.000,390.000,3.730,4.130,4.490,3.900,0.018,-0.016,0.003,0.004,194.000,0.070,-0.154,-0.187,-10.081,-0.000,0.000,0.000,0,0,1500,1500,1000,1500
1577691127.826,-0.005,0.000,-0.001,-0.000,0.000,-0.000,0.000,-0.021,-0.012,373.000,413.000,449.000,390.000,3.730,4.130,4.490,3.900,0.019,-0.016,0.003,0.004,194.000,0.071,-0.153,-0.193,-10.070,-0.002,-0.001,0.001,0,0,1500,1500,1000,1500
1577691127.849,-0.006,-0.001,-0.000,-0.000,0.000,-0.000,0.000,-0.021,-0.015,373.000,413.000,449.000,390.000,3.730,4.130,4.490,3.900,0.018,-0.015,0.003,0.004,194.000,0.071,-0.144,-0.183,-10.058,0.001,-0.002,0.000,0,0,1500,1500,1000,1500
1577691127.870,-0.006,-0.002,0.000,-0.000,0.000,-0.000,0.000,-0.020,-0.016,374.000,416.000,450.000,394.000,3.740,4.160,4.500,3.940,0.018,-0.015,0.003,0.004,194.000,0.072,-0.154,-0.174,-10.070,-0.000,0.000,0.000,0,0,1500,1500,1000,1500
1577691127.894,-0.004,-0.001,0.001,0.000,-0.003,-0.000,0.000,-0.014,-0.012,373.000,415.000,448.000,397.000,3.730,4.150,4.480,3.970,0.018,-0.016,0.003,0.004,194.000,0.074,-0.157,-0.189,-10.076,0.003,0.000,-0.002,0,0,1500,1500,1000,1500
1577691127.921,-0.003,0.000,0.001,0.000,-0.003,-0.000,0.000,-0.008,-0.009,373.000,415.000,448.000,397.000,3.730,4.150,4.480,3.970,0.018,-0.016,0.003,0.004,194.000,0.074,-0.160,-0.186,-10.089,-0.002,-0.004,0.002,0,0,1500,1500,1000,1500
1577691127.945,-0.001,0.001,0.001,-0.000,0.000,0.000,-0.000,-0.004,-0.006,373.000,415.000,448.000,397.000,3.730,4.150,4.480,3.970,0.019,-0.016,0.003,0.004,194.000,0.072,-0.150,-0.195,-10.098,0.003,0.000,0.000,0,0,1500,1500,1000,1500
1577691127.959,-0.000,0.002,0.002,-0.000,0.000,0.000,-0.000,0.001,-0.004,373.000,415.000,448.000,397.000,3.730,4.150,4.480,3.970,0.018,-0.015,0.004,0.004,194.000,0.072,-0.149,-0.181,-10.106,0.001,-0.001,0.000,0,0,1500,1500,1000,1500
1577691127.981,-0.001,0.003,0.001,-0.003,-0.000,0.000,-0.000,-0.003,-0.001,374.000,417.000,453.000,396.000,3.740,4.170,4.530,3.960,0.018,-0.015,0.004,0.004,194.000,0.073,-0.160,-0.174,-10.079,0.001,0.001,0.002,0,0,1500,1500,1000,1500
1577691128.005,-0.002,0.004,0.001,-0.003,-0.000,0.000,-0.000,-0.006,0.003,374.000,417.000,453.000,396.000,3.740,4.170,4.530,3.960,0.018,-0.016,0.004,0.004,194.000,0.073,-0.163,-0.184,-10.070,-0.001,-0.003,0.000,0,0,1500,1500,1000,1500
1577691128.025,-0.004,0.005,0.000,-0.000,0.000,-0.000,-0.000,-0.010,0.006,375.000,415.000,455.000,394.000,3.750,4.150,4.550,3.940,0.018,-0.016,0.004,0.004,194.000,0.074,-0.163,-0.182,-10.081,0.001,-0.001,0.001,0,0,1500,1500,1000,1500
1577691128.048,-0.005,0.006,-0.000,-0.000,0.000,-0.000,-0.000,-0.013,0.009,375.000,415.000,455.000,394.000,3.750,4.150,4.550,3.940,0.018,-0.016,0.004,0.004,194.000,0.074,-0.174,-0.191,-10.089,0.001,0.001,0.000,0,0,1500,1500,1000,1500
1577691128.069,-0.006,0.007,-0.001,-0.000,0.000,-0.000,-0.000,-0.017,0.012,375.000,415.000,455.000,394.000,3.750,4.150,4.550,3.940,0.019,-0.016,0.004,0.004,194.000,0.072,-0.163,-0.195,-10.086,-0.002,0.003,0.000,0,0,1500,1500,1000,1500
1577691128.092,-0.007,0.008,-0.001,-0.000,0.000,-0.000,-0.000,-0.019,0.014,375.000,415.000,455.000,394.000,3.750,4.150,4.550,3.940,0.019,-0.016,0.004,0.004,194.000,0.072,-0.153,-0.184,-10.089,-0.000,0.000,0.001,0,0,1500,1500,1000,1500
1577691128.113,-0.008,0.009,-0.001,0.003,0.000,-0.000,-0.000,-0.021,0.016,375.000,415.000,455.000,394.000,3.750,4.150,4.550,3.940,0.019,-0.016,0.004,0.004,194.000,0.071,-0.165,-0.187,-10.084,0.001,-0.001,-0.002,0,0,1500,1500,1000,1500
1577691128.141,-0.010,0.009,-0.002,-0.000,0.000,0.000,0.000,-0.027,0.015,373.000,419.000,453.000,395.000,3.730,4.190,4.530,3.950,0.018,-0.016,0.004,0.004,194.000,0.071,-0.168,-0.171,-10.094,0.002,0.001,-0.001,0,0,1500,1500,1000,1500
1577691128.167,-0.012,0.009,-0.003,-0.000,0.000,0.000,0.000,-0.032,0.014,373.000,419.000,453.000,395.000,3.730,4.190,4.530,3.950,0.018,-0.016,0.004,0.004,194.000,0.071,-0.167,-0.158,-10.102,0.001,0.002,0.002,0,0,1500,1500,1000,1500
1577691128.189,-0.014,0.009,-0.003,-0.000,0.000,0.000,0.000,-0.036,0.013,377.000,417.000,446.000,394.000,3.730,4.190,4.530,3.950,0.017,-0.016,0.004,0.004,194.000,0.071,-0.160,-0.151,-10.100,-0.001,0.000,-0.001,0,0,1500,1500,1000,1500
1577691128.203,-0.012,0.005,-0.003,-0.000,0.000,0.000,0.000,-0.026,0.001,377.000,417.000,446.000,394.000,3.770,4.170,4.460,3.940,0.016,-0.016,0.004,0.004,194.000,0.071,-0.159,-0.156,-10.105,-0.001,0.000,-0.001,0,0,1500,1500,1000,1500
1577691128.225,-0.009,0.001,-0.003,-0.000,0.000,0.000,0.000,-0.017,-0.010,377.000,417.000,446.000,394.000,3.770,4.170,4.460,3.940,0.016,-0.016,0.004,0.004,194.000,0.075,-0.156,-0.160,-10.110,0.002,0.000,-0.001,0,0,1500,1500,1000,1500
1577691128.249,-0.007,-0.002,-0.002,-0.000,0.000,0.000,0.000,-0.009,-0.020,377.000,417.000,446.000,394.000,3.770,4.170,4.460,3.940,0.016,-0.016,0.004,0.004,194.000,0.075,-0.165,-0.151,-10.118,0.003,-0.002,-0.001,0,0,1500,1500,1000,1500
1577691128.269,-0.006,-0.001,-0.004,-0.000,0.000,0.000,0.000,-0.005,-0.016,375.000,419.000,451.000,400.000,3.750,4.190,4.510,4.000,0.016,-0.016,0.004,0.004,194.000,0.072,-0.173,-0.153,-10.125,-0.002,0.000,0.001,0,0,1500,1500,1000,1500
1577691128.293,-0.005,-0.000,-0.005,-0.000,0.000,0.000,0.000,-0.002,-0.012,375.000,419.000,451.000,400.000,3.750,4.190,4.510,4.000,0.016,-0.017,0.004,0.004,194.000,0.072,-0.188,-0.153,-10.158,0.003,0.002,-0.003,0,0,1500,1500,1000,1500
1577691128.313,-0.009,0.001,-0.005,-0.000,0.000,0.000,0.000,-0.013,-0.008,372.000,419.000,455.000,394.000,3.720,4.190,4.550,3.940,0.015,-0.017,0.004,0.004,194.000,0.071,-0.171,-0.153,-10.122,0.003,-0.001,0.000,0,0,1500,1500,1000,1500
1577691128.336,-0.012,0.002,-0.006,-0.000,0.000,0.000,0.000,-0.023,-0.004,372.000,419.000,455.000,394.000,3.720,4.190,4.550,3.940,0.015,-0.017,0.004,0.004,194.000,0.071,-0.168,-0.152,-10.104,0.001,-0.001,0.000,0,0,1500,1500,1000,1500
1577691128.356,-0.015,0.003,-0.006,-0.000,0.000,0.000,0.000,-0.032,-0.001,372.000,419.000,455.000,394.000,3.720,4.190,4.550,3.940,0.016,-0.016,0.004,0.004,194.000,0.075,-0.158,-0.164,-10.106,-0.000,-0.002,0.000,0,0,1500,1500,1000,1500
1577691128.384,-0.014,0.003,-0.006,-0.000,0.000,0.000,0.000,-0.027,-0.002,375.000,418.000,450.000,397.000,3.750,4.180,4.500,3.970,0.016,-0.016,0.004,0.004,194.000,0.070,-0.152,-0.174,-10.115,0.001,0.001,-0.002,0,0,1500,1500,1000,1500
1577691128.409,-0.013,0.002,-0.007,-0.000,0.000,0.000,0.000,-0.022,-0.003,375.000,418.000,450.000,397.000,3.750,4.180,4.500,3.970,0.016,-0.016,0.004,0.004,194.000,0.070,-0.160,-0.177,-10.135,0.002,0.000,0.001,0,0,1500,1500,1000,1500
1577691128.428,-0.012,0.002,-0.007,-0.000,0.000,0.000,0.000,-0.017,-0.004,375.000,418.000,450.000,397.000,3.750,4.180,4.500,3.970,0.017,-0.016,0.004,0.004,194.000,0.070,-0.166,-0.184,-10.159,0.003,0.002,-0.002,0,0,1500,1500,1000,1500
1577691128.449,-0.011,0.001,-0.008,-0.000,0.000,0.000,0.000,-0.013,-0.005,375.000,418.000,450.000,397.000,3.750,4.180,4.500,3.970,0.017,-0.016,0.004,0.004,194.000,0.072,-0.162,-0.178,-10.155,0.001,-0.003,0.000,0,0,1500,1500,1000,1500
1577691128.467,-0.007,0.003,-0.008,-0.000,0.000,0.000,0.000,-0.001,-0.001,378.000,412.000,452.000,397.000,3.780,4.120,4.520,3.970,0.017,-0.016,0.004,0.004,194.000,0.071,-0.145,-0.174,-10.136,-0.001,0.003,-0.002,0,0,1500,1500,1000,1500
1577691128.490,-0.004,0.004,-0.008,-0.000,0.000,0.000,0.000,0.010,0.003,378.000,412.000,452.000,397.000,3.780,4.120,4.520,3.970,0.018,-0.016,0.004,0.004,194.000,0.071,-0.154,-0.189,-10.121,0.001,0.000,0.001,0,0,1500,1500,1000,1500
1577691128.512,-0.000,0.005,-0.008,-0.000,0.000,0.000,0.000,0.020,0.006,378.000,412.000,452.000,397.000,3.780,4.120,4.520,3.970,0.018,-0.016,0.004,0.004,194.000,0.073,-0.163,-0.191,-10.116,-0.000,-0.002,0.001,0,0,1500,1500,1000,1500
1577691128.535,0.003,0.006,-0.008,-0.000,0.000,0.000,0.000,0.029,0.009,378.000,412.000,452.000,397.000,3.780,4.120,4.520,3.970,0.018,-0.016,0.004,0.004,194.000,0.073,-0.163,-0.201,-10.108,0.001,-0.002,0.001,0,0,1500,1500,1000,1500
1577691128.555,0.003,0.005,-0.007,-0.000,0.000,0.000,0.000,0.029,0.004,375.000,415.000,449.000,393.000,3.750,4.150,4.490,3.930,0.019,-0.016,0.004,0.004,194.000,0.074,-0.170,-0.203,-10.093,-0.002,-0.001,-0.001,0,0,1500,1500,1000,1500
1577691128.578,0.003,0.001,-0.007,-0.000,0.003,0.000,0.000,0.028,-0.006,378.000,417.000,450.000,392.000,3.780,4.170,4.500,3.920,0.019,-0.017,0.004,0.004,194.000,0.074,-0.176,-0.188,-10.090,0.004,0.000,-0.002,0,0,1500,1500,1000,1500
1577691128.599,0.003,-0.002,-0.007,-0.000,0.003,0.000,0.000,0.026,-0.016,378.000,417.000,450.000,392.000,3.780,4.170,4.500,3.920,0.019,-0.017,0.004,0.004,194.000,0.074,-0.171,-0.203,-10.088,-0.001,-0.002,0.000,0,0,1500,1500,1000,1500
1577691128.631,0.003,-0.005,-0.007,0.000,-0.003,-0.000,0.000,0.025,-0.024,378.000,417.000,450.000,392.000,3.780,4.170,4.500,3.920,0.019,-0.017,0.004,0.004,194.000,0.073,-0.163,-0.208,-10.093,-0.001,0.001,0.001,0,0,1500,1500,1000,1500
1577691128.653,0.003,-0.008,-0.007,0.000,-0.003,-0.000,0.000,0.023,-0.031,378.000,417.000,450.000,392.000,3.780,4.170,4.500,3.920,0.020,-0.016,0.004,0.004,194.000,0.073,-0.163,-0.218,-10.085,-0.000,0.000,0.001,0,0,1500,1500,1000,1500
1577691128.676,0.003,-0.011,-0.007,0.000,-0.003,-0.000,0.000,0.022,-0.038,378.000,417.000,450.000,392.000,3.780,4.170,4.500,3.920,0.020,-0.016,0.004,0.004,194.000,0.073,-0.162,-0.213,-10.097,-0.000,-0.001,-0.002,0,0,1500,1500,1000,1500
1577691128.692,0.006,-0.012,-0.007,-0.000,0.000,0.000,0.000,0.029,-0.039,379.000,416.000,449.000,397.000,3.790,4.160,4.490,3.970,0.020,-0.017,0.004,0.004,194.000,0.072,-0.171,-0.210,-10.085,0.002,0.000,-0.001,0,0,1500,1500,1000,1500
1577691128.713,0.005,-0.014,-0.007,-0.000,0.000,0.000,0.000,0.027,-0.044,375.000,420.000,447.000,395.000,3.750,4.200,4.470,3.950,0.020,-0.017,0.004,0.004,194.000,0.073,-0.181,-0.207,-10.079,0.004,0.001,-0.001,0,0,1500,1500,1000,1500
1577691128.737,0.005,-0.016,-0.007,-0.000,0.000,0.000,0.000,0.024,-0.048,375.000,420.000,447.000,395.000,3.750,4.200,4.470,3.950,0.020,-0.017,0.004,0.004,194.000,0.073,-0.168,-0.203,-10.090,0.003,0.000,-0.003,0,0,1500,1500,1000,1500
1577691128.757,0.005,-0.016,-0.008,-0.000,0.000,0.000,0.000,0.023,-0.047,379.000,419.000,452.000,397.000,3.790,4.190,4.520,3.970,0.020,-0.017,0.004,0.004,194.000,0.073,-0.166,-0.205,-10.085,-0.000,0.001,0.000,0,0,1500,1500,1000,1500
1577691128.781,0.005,-0.017,-0.009,-0.000,0.000,0.000,0.000,0.023,-0.046,379.000,419.000,452.000,397.000,3.790,4.190,4.520,3.970,0.020,-0.017,0.004,0.004,194.000,0.073,-0.166,-0.196,-10.074,0.001,0.001,-0.003,0,0,1500,1500,1000,1500
1577691128.801,0.005,-0.017,-0.010,-0.000,0.000,0.000,0.000,0.022,-0.045,379.000,419.000,452.000,397.000,3.790,4.190,4.520,3.970,0.020,-0.017,0.004,0.004,194.000,0.073,-0.170,-0.198,-10.057,-0.000,-0.001,-0.002,0,0,1500,1500,1000,1500
1577691128.823,0.006,-0.018,-0.011,-0.000,0.000,0.000,0.000,0.021,-0.043,379.000,419.000,452.000,397.000,3.790,4.190,4.520,3.970,0.020,-0.017,0.004,0.004,194.000,0.072,-0.166,-0.200,-10.065,0.001,0.000,0.000,0,0,1500,1500,1000,1500
1577691128.845,0.006,-0.018,-0.012,-0.000,0.000,0.000,0.000,0.020,-0.042,379.000,419.000,452.000,397.000,3.790,4.190,4.520,3.970,0.020,-0.016,0.004,0.004,194.000,0.072,-0.156,-0.202,-10.081,0.001,-0.001,0.002,0,0,1500,1500,1000,1500
1577691128.876,0.006,-0.018,-0.012,-0.000,0.000,0.000,0.000,0.020,-0.041,379.000,419.000,452.000,397.000,3.790,4.190,4.520,3.970,0.020,-0.016,0.004,0.004,194.000,0.073,-0.150,-0.191,-10.076,-0.002,0.004,-0.001,0,0,1500,1500,1000,1500
1577691128.894,0.006,-0.018,-0.013,-0.000,0.000,0.000,0.000,0.019,-0.039,379.000,419.000,452.000,397.000,3.790,4.190,4.520,3.970,0.019,-0.016,0.004,0.004,194.000,0.073,-0.156,-0.181,-10.074,0.001,-0.001,-0.002,0,0,1500,1500,1000,1500
1577691128.916,0.006,-0.018,-0.014,-0.000,0.000,0.000,0.000,0.018,-0.038,379.000,419.000,452.000,397.000,3.790,4.190,4.520,3.970,0.019,-0.016,0.004,0.004,194.000,0.073,-0.161,-0.181,-10.087,0.001,-0.001,-0.001,0,0,1500,1500,1000,1500
1577691128.937,0.006,-0.018,-0.014,-0.000,0.000,0.000,0.000,0.017,-0.036,379.000,419.000,452.000,397.000,3.790,4.190,4.520,3.970,0.019,-0.016,0.004,0.004,194.000,0.072,-0.170,-0.186,-10.088,-0.000,0.003,-0.002,0,0,1500,1500,1000,1500
1577691128.959,0.006,-0.018,-0.015,-0.000,0.000,0.000,0.000,0.016,-0.034,379.000,419.000,452.000,397.000,3.790,4.190,4.520,3.970,0.019,-0.016,0.004,0.004,194.000,0.073,-0.167,-0.191,-10.070,-0.001,0.000,-0.002,0,0,1500,1500,1000,1500
1577691128.981,0.006,-0.018,-0.015,-0.000,0.000,0.000,0.000,0.016,-0.033,379.000,419.000,452.000,397.000,3.790,4.190,4.520,3.970,0.019,-0.016,0.004,0.004,194.000,0.073,-0.170,-0.196,-10.061,0.001,0.000,-0.001,0,0,1500,1500,1000,1500
1577691129.002,0.004,-0.018,-0.014,-0.000,0.000,0.000,0.000,0.010,-0.031,374.000,417.000,450.000,393.000,3.740,4.170,4.500,3.930,0.019,-0.017,0.004,0.004,194.000,0.073,-0.173,-0.197,-10.063,0.002,0.001,0.002,0,0,1500,1500,1000,1500
1577691129.024,0.003,-0.018,-0.013,-0.000,0.000,0.000,0.000,0.005,-0.029,374.000,417.000,450.000,393.000,3.740,4.170,4.500,3.930,0.019,-0.017,0.004,0.004,194.000,0.071,-0.180,-0.200,-10.065,-0.002,0.001,-0.002,0,0,1500,1500,1000,1500
1577691129.046,0.002,-0.018,-0.012,-0.000,0.000,0.000,0.000,-0.000,-0.027,374.000,417.000,450.000,393.000,3.740,4.170,4.500,3.930,0.019,-0.017,0.004,0.004,194.000,0.071,-0.174,-0.187,-10.088,0.002,-0.001,0.000,0,0,1500,1500,1000,1500
1577691129.068,0.000,-0.018,-0.011,-0.000,0.000,0.000,0.000,-0.004,-0.025,374.000,417.000,450.000,393.000,3.740,4.170,4.500,3.930,0.019,-0.017,0.004,0.004,194.000,0.074,-0.184,-0.188,-10.063,-0.000,-0.002,-0.001,0,0,1500,1500,1000,1500
1577691129.090,-0.001,-0.018,-0.010,-0.000,0.000,0.000,0.000,-0.008,-0.023,374.000,417.000,450.000,393.000,3.740,4.170,4.500,3.930,0.019,-0.017,0.004,0.004,194.000,0.074,-0.181,-0.187,-10.071,-0.000,-0.001,-0.001,0,0,1500,1500,1000,1500
1577691129.117,-0.002,-0.017,-0.009,-0.000,0.000,0.000,0.000,-0.012,-0.021,374.000,417.000,450.000,393.000,3.740,4.170,4.500,3.930,0.019,-0.017,0.004,0.004,194.000,0.074,-0.168,-0.184,-10.096,-0.001,0.000,0.000,0,0,1500,1500,1000,1500
1577691129.138,-0.003,-0.017,-0.008,-0.000,0.000,0.000,0.000,-0.015,-0.020,374.000,417.000,450.000,393.000,3.740,4.170,4.500,3.930,0.019,-0.017,0.004,0.005,194.000,0.073,-0.171,-0.181,-10.103,0.003,0.000,0.000,0,0,1500,1500,1000,1500
1577691129.159,-0.004,-0.017,-0.007,-0.000,0.000,0.000,0.000,-0.017,-0.018,374.000,417.000,450.000,393.000,3.740,4.170,4.500,3.930,0.019,-0.017,0.004,0.005,194.000,0.069,-0.171,-0.186,-10.098,-0.001,0.002,-0.002,0,0,1500,1500,1000,1500
1577691129.182,-0.005,-0.017,-0.007,-0.000,0.000,0.000,0.000,-0.019,-0.016,374.000,417.000,450.000,393.000,3.740,4.170,4.500,3.930,0.019,-0.017,0.004,0.005,194.000,0.069,-0.167,-0.191,-10.102,0.002,-0.002,0.002,0,0,1500,1500,1000,1500
1577691129.203,-0.006,-0.017,-0.006,-0.000,0.000,0.000,0.000,-0.021,-0.015,374.000,417.000,450.000,393.000,3.740,4.170,4.500,3.930,0.019,-0.017,0.004,0.005,194.000,0.074,-0.162,-0.195,-10.078,0.002,-0.003,0.000,0,0,1500,1500,1000,1500
1577691129.225,-0.003,-0.013,-0.006,-0.000,0.000,0.000,0.000,-0.011,-0.004,377.000,412.000,452.000,398.000,3.770,4.120,4.520,3.980,0.019,-0.017,0.004,0.005,194.000,0.074,-0.160,-0.199,-10.061,0.003,-0.001,0.000,0,0,1500,1500,1000,1500
1577691129.247,-0.000,-0.009,-0.005,-0.000,0.000,0.000,0.000,-0.001,0.007,377.000,412.000,452.000,398.000,3.770,4.120,4.520,3.980,0.019,-0.017,0.004,0.005,194.000,0.074,-0.165,-0.199,-10.062,-0.000,0.002,0.002,0,0,1500,1500,1000,1500
1577691129.268,0.003,-0.007,-0.005,-0.000,0.000,0.000,0.000,0.009,0.015,376.000,410.000,450.000,396.000,3.760,4.100,4.500,3.960,0.020,-0.016,0.004,0.005,194.000,0.072,-0.160,-0.206,-10.069,-0.000,0.001,0.000,0,0,1500,1500,1000,1500
1577691129.291,0.006,-0.004,-0.004,-0.000,0.000,0.000,0.000,0.018,0.022,376.000,410.000,450.000,396.000,3.760,4.100,4.500,3.960,0.020,-0.017,0.004,0.005,194.000,0.072,-0.170,-0.205,-10.074,0.001,0.001,0.000,0,0,1500,1500,1000,1500
1577691129.313,0.009,-0.002,-0.003,-0.000,0.000,0.000,0.000,0.026,0.028,376.000,410.000,450.000,396.000,3.760,4.100,4.500,3.960,0.020,-0.016,0.004,0.005,194.000,0.072,-0.161,-0.203,-10.093,-0.000,-0.002,0.000,0,0,1500,1500,1000,1500
1577691129.336,0.011,0.001,-0.002,-0.000,0.000,0.000,0.000,0.033,0.034,376.000,410.000,450.000,396.000,3.760,4.100,4.500,3.960,0.020,-0.016,0.004,0.005,194.000,0.072,-0.162,-0.210,-10.103,-0.001,-0.001,-0.001,0,0,1500,1500,1000,1500
1577691129.363,0.012,0.000,-0.002,-0.000,0.000,0.000,0.000,0.033,0.030,377.000,415.000,450.000,394.000,3.770,4.150,4.500,3.940,0.020,-0.016,0.004,0.005,194.000,0.072,-0.157,-0.200,-10.123,-0.002,-0.001,-0.001,0,0,1500,1500,1000,1500
1577691129.380,0.012,-0.000,-0.002,-0.000,0.000,0.000,0.000,0.032,0.026,377.000,415.000,450.000,394.000,3.770,4.150,4.500,3.940,0.020,-0.016,0.004,0.005,194.000,0.072,-0.149,-0.204,-10.116,0.002,0.000,0.004,0,0,1500,1500,1000,1500
1577691129.402,0.012,0.000,-0.002,-0.000,0.000,0.000,0.000,0.031,0.028,375.000,415.000,450.000,396.000,3.750,4.150,4.500,3.960,0.020,-0.015,0.004,0.005,194.000,0.072,-0.141,-0.204,-10.109,0.001,-0.001,0.001,0,0,1500,1500,1000,1500
1577691129.424,0.012,0.001,-0.002,-0.000,0.000,0.000,0.000,0.030,0.029,375.000,415.000,450.000,396.000,3.750,4.150,4.500,3.960,0.020,-0.015,0.004,0.005,194.000,0.071,-0.139,-0.196,-10.100,0.002,0.000,0.003,0,0,1500,1500,1000,1500
1577691129.447,0.012,0.002,-0.002,-0.000,0.000,0.000,0.000,0.029,0.030,375.000,415.000,450.000,396.000,3.750,4.150,4.500,3.960,0.020,-0.015,0.004,0.005,194.000,0.071,-0.153,-0.191,-10.098,-0.001,0.001,-0.001,0,0,1500,1500,1000,1500
1577691129.468,0.012,0.003,-0.002,-0.000,0.000,0.000,0.000,0.028,0.031,375.000,415.000,450.000,396.000,3.750,4.150,4.500,3.960,0.019,-0.015,0.004,0.005,194.000,0.072,-0.161,-0.185,-10.098,-0.001,0.000,-0.001,0,0,1500,1500,1000,1500
1577691129.490,0.012,0.004,-0.002,-0.000,0.000,0.000,0.000,0.026,0.031,375.000,415.000,450.000,396.000,3.750,4.150,4.500,3.960,0.019,-0.015,0.004,0.005,194.000,0.072,-0.164,-0.187,-10.097,-0.001,0.001,-0.002,0,0,1500,1500,1000,1500
1577691129.512,0.013,0.004,-0.002,-0.000,0.003,0.000,0.000,0.025,0.032,375.000,415.000,450.000,396.000,3.750,4.150,4.500,3.960,0.019,-0.016,0.004,0.005,194.000,0.073,-0.163,-0.183,-10.089,-0.002,-0.001,0.001,0,0,1500,1500,1000,1500
1577691129.534,0.013,0.005,-0.001,-0.000,0.003,0.000,0.000,0.024,0.032,375.000,415.000,450.000,396.000,3.750,4.150,4.500,3.960,0.019,-0.016,0.004,0.005,194.000,0.073,-0.155,-0.182,-10.078,-0.000,0.001,-0.002,0,0,1500,1500,1000,1500
1577691129.556,0.012,0.004,-0.001,-0.000,0.000,-0.000,0.000,0.020,0.028,375.000,417.000,449.000,395.000,3.750,4.170,4.490,3.950,0.019,-0.016,0.004,0.005,194.000,0.075,-0.158,-0.185,-10.077,0.002,-0.001,0.001,0,0,1500,1500,1000,1500
1577691129.583,0.011,0.003,-0.001,-0.000,0.000,-0.000,0.000,0.017,0.024,375.000,417.000,449.000,395.000,3.750,4.170,4.490,3.950,0.019,-0.016,0.004,0.005,194.000,0.075,-0.160,-0.190,-10.093,0.002,-0.001,-0.001,0,0,1500,1500,1000,1500
1577691129.610,0.010,0.002,-0.001,0.000,-0.003,-0.000,0.000,0.014,0.020,375.000,417.000,449.000,395.000,3.750,4.170,4.490,3.950,0.019,-0.016,0.004,0.005,194.000,0.071,-0.167,-0.202,-10.091,-0.000,0.000,-0.001,0,0,1500,1500,1000,1500
1577691129.627,0.010,0.001,-0.001,0.000,-0.003,-0.000,0.000,0.011,0.016,375.000,417.000,449.000,395.000,3.750,4.170,4.490,3.950,0.019,-0.016,0.004,0.005,194.000,0.071,-0.162,-0.206,-10.102,-0.001,0.001,0.001,0,0,1500,1500,1000,1500
1577691129.648,0.009,0.000,-0.001,-0.000,0.000,0.000,0.000,0.008,0.013,375.000,417.000,449.000,395.000,3.750,4.170,4.490,3.950,0.019,-0.016,0.004,0.005,194.000,0.074,-0.166,-0.196,-10.102,-0.001,0.002,0.001,0,0,1500,1500,1000,1500
1577691129.669,0.008,-0.000,-0.001,-0.000,0.000,0.000,0.000,0.003,0.011,373.000,416.000,449.000,393.000,3.730,4.160,4.490,3.930,0.019,-0.016,0.005,0.005,194.000,0.072,-0.161,-0.201,-10.123,0.002,0.000,0.000,0,0,1500,1500,1000,1500
1577691129.690,0.006,-0.001,-0.000,-0.000,0.000,0.000,0.000,-0.002,0.008,373.000,416.000,449.000,393.000,3.730,4.160,4.490,3.930,0.020,-0.016,0.005,0.005,194.000,0.072,-0.155,-0.203,-10.124,0.001,-0.003,0.000,0,0,1500,1500,1000,1500
1577691129.712,0.006,0.001,-0.001,-0.000,0.000,0.000,0.000,-0.002,0.014,378.000,415.000,455.000,397.000,3.780,4.150,4.550,3.970,0.020,-0.016,0.005,0.005,194.000,0.072,-0.169,-0.204,-10.102,0.002,-0.001,0.000,0,0,1500,1500,1000,1500
1577691129.734,0.006,0.003,-0.002,-0.000,0.000,0.000,0.000,-0.003,0.018,378.000,415.000,455.000,397.000,3.780,4.150,4.550,3.970,0.020,-0.016,0.005,0.005,194.000,0.072,-0.155,-0.195,-10.113,0.001,0.000,-0.001,0,0,1500,1500,1000,1500
1577691129.756,0.006,0.004,-0.004,-0.000,0.000,0.000,0.000,-0.003,0.022,378.000,415.000,455.000,397.000,3.780,4.150,4.550,3.970,0.020,-0.016,0.005,0.005,194.000,0.071,-0.172,-0.196,-10.123,-0.000,-0.001,0.001,0,0,1500,1500,1000,1500
1577691129.780,0.006,0.006,-0.005,-0.000,0.000,0.000,0.000,-0.003,0.026,378.000,415.000,455.000,397.000,3.780,4.150,4.550,3.970,0.020,-0.017,0.005,0.005,194.000,0.071,-0.179,-0.205,-10.115,0.002,0.000,-0.003,0,0,1500,1500,1000,1500
1577691129.800,0.007,0.005,-0.004,-0.000,0.000,0.000,0.000,0.000,0.023,375.000,414.000,448.000,395.000,3.750,4.140,4.480,3.950,0.020,-0.017,0.005,0.005,194.000,0.072,-0.174,-0.190,-10.115,-0.000,0.000,0.000,0,0,1500,1500,1000,1500
1577691129.836,0.008,0.005,-0.004,-0.000,0.000,0.000,0.000,0.006,0.020,375.000,415.000,447.000,397.000,3.750,4.150,4.470,3.970,0.019,-0.017,0.005,0.005,194.000,0.076,-0.173,-0.190,-10.129,0.002,0.000,-0.001,0,0,1500,1500,1000,1500
1577691129.852,0.010,0.005,-0.003,-0.000,0.000,0.000,0.000,0.010,0.018,375.000,415.000,447.000,397.000,3.750,4.150,4.470,3.970,0.019,-0.017,0.005,0.005,194.000,0.076,-0.170,-0.202,-10.127,-0.002,-0.003,0.001,0,0,1500,1500,1000,1500
1577691129.880,0.011,0.004,-0.003,-0.000,0.000,0.000,0.000,0.014,0.016,375.000,415.000,447.000,397.000,3.750,4.150,4.470,3.970,0.019,-0.017,0.005,0.005,194.000,0.075,-0.162,-0.196,-10.133,0.002,0.001,0.001,0,0,1500,1500,1000,1500
1577691129.896,0.013,0.004,-0.002,-0.000,0.000,0.000,0.000,0.018,0.014,375.000,415.000,447.000,397.000,3.750,4.150,4.470,3.970,0.019,-0.016,0.005,0.005,194.000,0.075,-0.151,-0.198,-10.141,0.003,-0.003,0.000,0,0,1500,1500,1000,1500
1577691129.915,0.013,0.001,-0.002,-0.000,0.000,0.000,0.000,0.019,0.004,376.000,417.000,445.000,394.000,3.760,4.170,4.450,3.940,0.019,-0.016,0.005,0.005,194.000,0.072,-0.167,-0.192,-10.114,-0.004,0.001,-0.001,0,0,1500,1500,1000,1500
1577691129.939,0.014,-0.003,-0.002,-0.000,0.000,0.000,0.000,0.020,-0.006,376.000,417.000,445.000,394.000,3.760,4.170,4.450,3.940,0.019,-0.016,0.005,0.005,194.000,0.072,-0.150,-0.198,-10.122,0.003,-0.002,-0.002,0,0,1500,1500,1000,1500
1577691129.958,0.013,-0.004,-0.003,-0.000,0.000,0.000,0.000,0.014,-0.009,377.000,418.000,451.000,395.000,3.770,4.180,4.510,3.950,0.019,-0.016,0.005,0.005,194.000,0.072,-0.153,-0.200,-10.109,-0.000,0.000,-0.001,0,0,1500,1500,1000,1500
1577691129.981,0.011,-0.005,-0.003,-0.000,0.000,0.000,0.000,0.010,-0.012,377.000,418.000,451.000,395.000,3.770,4.180,4.510,3.950,0.019,-0.016,0.005,0.005,194.000,0.072,-0.164,-0.196,-10.109,0.003,0.000,0.003,0,0,1500,1500,1000,1500
1577691130.002,0.010,-0.003,-0.004,-0.000,0.000,0.000,0.000,0.005,-0.006,375.000,416.000,453.000,397.000,3.750,4.160,4.530,3.970,0.020,-0.016,0.005,0.005,194.000,0.075,-0.150,-0.197,-10.118,0.002,0.003,0.002,0,0,1500,1500,1000,1500
1577691130.025,0.009,-0.001,-0.004,-0.000,0.000,0.000,0.000,0.001,0.000,375.000,416.000,453.000,397.000,3.750,4.160,4.530,3.970,0.019,-0.016,0.005,0.005,194.000,0.075,-0.164,-0.191,-10.127,0.001,0.001,-0.001,0,0,1500,1500,1000,1500
1577691130.047,0.008,0.001,-0.005,-0.000,0.003,0.000,0.000,-0.002,0.005,375.000,416.000,453.000,397.000,3.750,4.160,4.530,3.970,0.019,-0.016,0.005,0.005,194.000,0.074,-0.176,-0.195,-10.128,-0.001,-0.001,0.003,0,0,1500,1500,1000,1500
1577691130.083,0.007,0.002,-0.005,-0.000,0.003,0.000,0.000,-0.005,0.010,375.000,416.000,453.000,397.000,3.750,4.160,4.530,3.970,0.019,-0.017,0.005,0.005,194.000,0.074,-0.189,-0.197,-10.141,-0.000,-0.001,0.000,0,0,1500,1500,1000,1500
1577691130.107,0.008,0.001,-0.005,-0.000,0.000,-0.000,0.000,-0.002,0.006,376.000,415.000,448.000,395.000,3.760,4.150,4.480,3.950,0.019,-0.017,0.005,0.005,194.000,0.070,-0.181,-0.190,-10.108,-0.002,0.000,-0.001,0,0,1500,1500,1000,1500
1577691130.122,0.007,0.002,-0.005,-0.000,0.000,-0.000,0.000,-0.004,0.007,375.000,414.000,451.000,394.000,3.750,4.140,4.510,3.940,0.019,-0.017,0.005,0.005,194.000,0.073,-0.179,-0.186,-10.092,-0.000,0.000,-0.003,0,0,1500,1500,1000,1500
1577691130.146,0.007,0.002,-0.004,-0.000,0.000,-0.000,0.000,-0.005,0.008,375.000,414.000,451.000,394.000,3.750,4.140,4.510,3.940,0.019,-0.017,0.005,0.005,194.000,0.073,-0.180,-0.191,-10.094,-0.000,0.001,0.001,0,0,1500,1500,1000,1500
1577691130.169,0.006,0.002,-0.004,-0.000,0.000,-0.000,0.000,-0.006,0.008,375.000,414.000,451.000,394.000,3.750,4.140,4.510,3.940,0.019,-0.018,0.005,0.005,194.000,0.073,-0.190,-0.203,-10.107,0.001,0.001,-0.002,0,0,1500,1500,1000,1500
